{"models": [{"id": 0, "type_name": "modules/geo_models/company", "properties": {"name": "Mills, Allen and Ramirez, Group", "description": "Organic responsive database", "city": "Norco", "timezone": "America/Los_Angeles", "location": {"type": "Point", "coordinates": [-117.54866, 33.93113]}}}, {"id": 1, "type_name": "modules/geo_models/company", "properties": {"name": "Guerra Inc, Ltd", "description": "Compatible motivating array", "city": "Rosedale", "timezone": "America/New_York", "location": {"type": "Point", "coordinates": [-76.51552, 39.32011]}}}, {"id": 2, "type_name": "modules/geo_models/company", "properties": {"name": "Bradley-Bruce, Inc", "description": "Streamlined client-server project", "city": "North Tustin", "timezone": "America/Los_Angeles", "location": {"type": "Point", "coordinates": [-117.79394, 33.76446]}}}, {"id": 3, "type_name": "modules/geo_models/company", "properties": {"name": "Williams PLC, Inc", "description": "Multi-tiered 3rdgeneration structure", "city": "Dublin", "timezone": "America/New_York", "location": {"type": "Point", "coordinates": [-82.90375, 32.54044]}}}, {"id": 4, "type_name": "modules/geo_models/company", "properties": {"name": "Griffin Inc, PLC", "description": "Seamless regional throughput", "city": "Coralville", "timezone": "America/Chicago", "location": {"type": "Point", "coordinates": [-91.58045, 41.6764]}}}, {"id": 5, "type_name": "modules/geo_models/company", "properties": {"name": "Blackwell and Sons, and Sons", "description": "User-centric modular system engine", "city": "Punta Gorda Isles", "timezone": "America/New_York", "location": {"type": "Point", "coordinates": [-82.07842, 26.91756]}}}, {"id": 6, "type_name": "modules/geo_models/company", "properties": {"name": "Stein, Adams and Garcia, Inc", "description": "Visionary methodical approach", "city": "Glendale", "timezone": "America/Los_Angeles", "location": {"type": "Point", "coordinates": [-118.25508, 34.14251]}}}, {"id": 7, "type_name": "modules/geo_models/company", "properties": {"name": "Hernandez-Sanchez, PLC", "description": "Multi-tiered optimal paradigm", "city": "Canton", "timezone": "America/Detroit", "location": {"type": "Point", "coordinates": [-83.48216, 42.30865]}}}, {"id": 8, "type_name": "modules/geo_models/company", "properties": {"name": "Lozano and Sons, LLC", "description": "Cross-group dedicated adapter", "city": "New Canaan", "timezone": "America/New_York", "location": {"type": "Point", "coordinates": [-73.49484, 41.14676]}}}, {"id": 9, "type_name": "modules/geo_models/company", "properties": {"name": "Scott and Sons, and Sons", "description": "Operative coherent focus group", "city": "South Lawndale", "timezone": "America/Chicago", "location": {"type": "Point", "coordinates": [-87.71255, 41.84364]}}}, {"id": 10, "type_name": "modules/geo_models/company", "properties": {"name": "Kelly, Patel and Johnson, LLC", "description": "Multi-lateral 6thgeneration encoding", "city": "Davis", "timezone": "America/Los_Angeles", "location": {"type": "Point", "coordinates": [-121.74052, 38.54491]}}}, {"id": 11, "type_name": "modules/geo_models/company", "properties": {"name": "Smith-Thomas, LLC", "description": "Horizontal executive matrix", "city": "Beaumont", "timezone": "America/Los_Angeles", "location": {"type": "Point", "coordinates": [-116.97725, 33.92946]}}}, {"id": 12, "type_name": "modules/geo_models/company", "properties": {"name": "Irwin Group, LLC", "description": "Distributed encompassing Graphic Interface", "city": "Deltona", "timezone": "America/New_York", "location": {"type": "Point", "coordinates": [-81.26367, 28.90054]}}}, {"id": 13, "type_name": "modules/geo_models/company", "properties": {"name": "Sawyer Inc, Group", "description": "Reactive optimal parallelism", "city": "Fayetteville", "timezone": "America/New_York", "location": {"type": "Point", "coordinates": [-78.87836, 35.05266]}}}, {"id": 14, "type_name": "modules/geo_models/company", "properties": {"name": "Simon Inc, LLC", "description": "Up-sized 6thgeneration projection", "city": "Evergreen Park", "timezone": "America/Chicago", "location": {"type": "Point", "coordinates": [-87.70172, 41.72059]}}}, {"id": 15, "type_name": "modules/geo_models/company", "properties": {"name": "Stanley LLC, Inc", "description": "Object-based regional firmware", "city": "Mira Mesa", "timezone": "America/Los_Angeles", "location": {"type": "Point", "coordinates": [-117.14392, 32.9156]}}}, {"id": 16, "type_name": "modules/geo_models/company", "properties": {"name": "Patterson, Jackson and Moore, Group", "description": "Synergized impactful model", "city": "Santa Maria", "timezone": "America/Los_Angeles", "location": {"type": "Point", "coordinates": [-120.43572, 34.95303]}}}, {"id": 17, "type_name": "modules/geo_models/company", "properties": {"name": "Molina LLC, LLC", "description": "Quality-focused disintermediate emulation", "city": "Rolla", "timezone": "America/Chicago", "location": {"type": "Point", "coordinates": [-91.77127, 37.95143]}}}, {"id": 18, "type_name": "modules/geo_models/company", "properties": {"name": "Galloway, Rhodes and Lopez, Inc", "description": "Innovative foreground pricing structure", "city": "Huntley", "timezone": "America/Chicago", "location": {"type": "Point", "coordinates": [-88.42814, 42.16808]}}}, {"id": 19, "type_name": "modules/geo_models/company", "properties": {"name": "Reyes-Delacruz, Inc", "description": "Universal secondary migration", "city": "Sun City Center", "timezone": "America/New_York", "location": {"type": "Point", "coordinates": [-82.35176, 27.71809]}}}, {"id": 20, "type_name": "modules/geo_models/company", "properties": {"name": "Kelley Inc, Ltd", "description": "Object-based bi-directional access", "city": "Fort Washington", "timezone": "America/New_York", "location": {"type": "Point", "coordinates": [-77.02303, 38.70734]}}}, {"id": 21, "type_name": "modules/geo_models/company", "properties": {"name": "Hernandez, Macdonald and Wilkins, and Sons", "description": "Monitored directional solution", "city": "Harrisburg", "timezone": "America/New_York", "location": {"type": "Point", "coordinates": [-76.88442, 40.2737]}}}, {"id": 22, "type_name": "modules/geo_models/company", "properties": {"name": "Santiago-Lopez, Ltd", "description": "Down-sized exuding forecast", "city": "Bourbonnais", "timezone": "America/Chicago", "location": {"type": "Point", "coordinates": [-87.88754, 41.15376]}}}, {"id": 23, "type_name": "modules/geo_models/company", "properties": {"name": "Robertson, Rosario and Contreras, PLC", "description": "Persistent scalable framework", "city": "Harrisburg", "timezone": "America/New_York", "location": {"type": "Point", "coordinates": [-76.88442, 40.2737]}}}, {"id": 24, "type_name": "modules/geo_models/company", "properties": {"name": "Medina-Weeks, Ltd", "description": "Open-architected 4thgeneration array", "city": "Bon Air", "timezone": "America/New_York", "location": {"type": "Point", "coordinates": [-77.55777, 37.52487]}}}, {"id": 25, "type_name": "modules/geo_models/company", "properties": {"name": "Davis-Jones, Group", "description": "Realigned zero administration analyzer", "city": "Tupelo", "timezone": "America/Chicago", "location": {"type": "Point", "coordinates": [-88.70464, 34.25807]}}}, {"id": 26, "type_name": "modules/geo_models/company", "properties": {"name": "Johnson-Coleman, Ltd", "description": "Adaptive local productivity", "city": "Greenfield", "timezone": "America/Indiana/Indianapolis", "location": {"type": "Point", "coordinates": [-85.76942, 39.78504]}}}, {"id": 27, "type_name": "modules/geo_models/company", "properties": {"name": "Bradford, Glover and Williams, Ltd", "description": "Customer-focused mission-critical capacity", "city": "Canton", "timezone": "America/Detroit", "location": {"type": "Point", "coordinates": [-83.48216, 42.30865]}}}, {"id": 28, "type_name": "modules/geo_models/company", "properties": {"name": "Hale, Byrd and Wells, PLC", "description": "Cross-platform fresh-thinking groupware", "city": "Peabody", "timezone": "America/New_York", "location": {"type": "Point", "coordinates": [-70.92866, 42.52787]}}}, {"id": 29, "type_name": "modules/geo_models/company", "properties": {"name": "Russo, Hayes and Pugh, Ltd", "description": "Cross-platform neutral service-desk", "city": "Kearns", "timezone": "America/Denver", "location": {"type": "Point", "coordinates": [-111.99633, 40.65995]}}}, {"id": 30, "type_name": "modules/geo_models/company", "properties": {"name": "Long-Becker, and Sons", "description": "Automated non-volatile hardware", "city": "Woodlawn", "timezone": "America/New_York", "location": {"type": "Point", "coordinates": [-76.72803, 39.32288]}}}, {"id": 31, "type_name": "modules/geo_models/company", "properties": {"name": "Johnson Group, PLC", "description": "Extended object-oriented success", "city": "Evergreen Park", "timezone": "America/Chicago", "location": {"type": "Point", "coordinates": [-87.70172, 41.72059]}}}, {"id": 32, "type_name": "modules/geo_models/company", "properties": {"name": "Goodman LLC, and Sons", "description": "Progressive bifurcated process improvement", "city": "Waverly", "timezone": "America/Detroit", "location": {"type": "Point", "coordinates": [-84.62081, 42.7392]}}}, {"id": 33, "type_name": "modules/geo_models/company", "properties": {"name": "Hart-Cox, PLC", "description": "Total regional leverage", "city": "Iron River", "timezone": "America/Menominee", "location": {"type": "Point", "coordinates": [-88.64235, 46.09273]}}}, {"id": 34, "type_name": "modules/geo_models/company", "properties": {"name": "Hill Inc, Inc", "description": "Streamlined explicit implementation", "city": "Redding", "timezone": "America/Los_Angeles", "location": {"type": "Point", "coordinates": [-122.39168, 40.58654]}}}, {"id": 35, "type_name": "modules/geo_models/company", "properties": {"name": "Suarez PLC, Inc", "description": "Digitized dedicated monitoring", "city": "Covington", "timezone": "America/New_York", "location": {"type": "Point", "coordinates": [-84.50855, 39.08367]}}}, {"id": 36, "type_name": "modules/geo_models/company", "properties": {"name": "Johnson-Montes, Ltd", "description": "Synergized web-enabled framework", "city": "South Lawndale", "timezone": "America/Chicago", "location": {"type": "Point", "coordinates": [-87.71255, 41.84364]}}}, {"id": 37, "type_name": "modules/geo_models/company", "properties": {"name": "Roberts, Thompson and Long, Ltd", "description": "Future-proofed actuating initiative", "city": "Scotch Plains", "timezone": "America/New_York", "location": {"type": "Point", "coordinates": [-74.38987, 40.65538]}}}, {"id": 38, "type_name": "modules/geo_models/company", "properties": {"name": "Bailey-Sloan, PLC", "description": "Reactive well-modulated budgetary management", "city": "Morningside Heights", "timezone": "America/New_York", "location": {"type": "Point", "coordinates": [-73.9625, 40.81]}}}, {"id": 39, "type_name": "modules/geo_models/company", "properties": {"name": "Aguilar-Ray, and Sons", "description": "Innovative executive circuit", "city": "Visitacion Valley", "timezone": "America/Los_Angeles", "location": {"type": "Point", "coordinates": [-122.40433, 37.71715]}}}, {"id": 40, "type_name": "modules/geo_models/company", "properties": {"name": "Weeks, Sellers and Sherman, PLC", "description": "Networked 24hour groupware", "city": "Hutto", "timezone": "America/Chicago", "location": {"type": "Point", "coordinates": [-97.54667, 30.5427]}}}, {"id": 41, "type_name": "modules/geo_models/company", "properties": {"name": "Brown Inc, PLC", "description": "Optimized static Graphical User Interface", "city": "Gainesville", "timezone": "America/New_York", "location": {"type": "Point", "coordinates": [-82.32483, 29.65163]}}}, {"id": 42, "type_name": "modules/geo_models/company", "properties": {"name": "Scott-Calhoun, Ltd", "description": "Up-sized mobile alliance", "city": "Murray", "timezone": "America/Chicago", "location": {"type": "Point", "coordinates": [-88.31476, 36.61033]}}}, {"id": 43, "type_name": "modules/geo_models/company", "properties": {"name": "Wilkerson Inc, PLC", "description": "Seamless discrete system engine", "city": "Boston", "timezone": "America/New_York", "location": {"type": "Point", "coordinates": [-71.05977, 42.35843]}}}, {"id": 44, "type_name": "modules/geo_models/company", "properties": {"name": "Taylor Group, Inc", "description": "Quality-focused exuding contingency", "city": "Bothell West", "timezone": "America/Los_Angeles", "location": {"type": "Point", "coordinates": [-122.24064, 47.80527]}}}, {"id": 45, "type_name": "modules/geo_models/company", "properties": {"name": "Jenkins, Hernandez and Roberts, Ltd", "description": "Team-oriented national encoding", "city": "Taunton", "timezone": "America/New_York", "location": {"type": "Point", "coordinates": [-71.08977, 41.9001]}}}, {"id": 46, "type_name": "modules/geo_models/company", "properties": {"name": "Martin Ltd, PLC", "description": "Synchronized zero administration website", "city": "Rolla", "timezone": "America/Chicago", "location": {"type": "Point", "coordinates": [-91.77127, 37.95143]}}}, {"id": 47, "type_name": "modules/geo_models/company", "properties": {"name": "Forbes-Harvey, LLC", "description": "Assimilated zero tolerance portal", "city": "Sunnyside", "timezone": "America/Los_Angeles", "location": {"type": "Point", "coordinates": [-120.00865, 46.32374]}}}, {"id": 48, "type_name": "modules/geo_models/company", "properties": {"name": "Buckley, Maxwell and Smith, and Sons", "description": "Fully-configurable multimedia interface", "city": "Mechanicsville", "timezone": "America/New_York", "location": {"type": "Point", "coordinates": [-77.37331, 37.60876]}}}, {"id": 49, "type_name": "modules/geo_models/company", "properties": {"name": "Kennedy and Sons, LLC", "description": "Polarized context-sensitive throughput", "city": "South Lawndale", "timezone": "America/Chicago", "location": {"type": "Point", "coordinates": [-87.71255, 41.84364]}}}, {"id": 50, "type_name": "modules/geo_models/company", "properties": {"name": "Krause-Ward, Inc", "description": "Profit-focused holistic Graphical User Interface", "city": "Jersey City", "timezone": "America/New_York", "location": {"type": "Point", "coordinates": [-74.07764, 40.72816]}}}, {"id": 51, "type_name": "modules/geo_models/company", "properties": {"name": "Jackson Inc, Inc", "description": "Inverse multi-state algorithm", "city": "Venice", "timezone": "America/New_York", "location": {"type": "Point", "coordinates": [-82.45426, 27.09978]}}}, {"id": 52, "type_name": "modules/geo_models/company", "properties": {"name": "Roberts, Lee and White, Ltd", "description": "Synchronized motivating paradigm", "city": "Ada", "timezone": "America/Chicago", "location": {"type": "Point", "coordinates": [-96.67834, 34.77453]}}}, {"id": 53, "type_name": "modules/geo_models/company", "properties": {"name": "Dennis Ltd, Inc", "description": "Stand-alone multi-state data-warehouse", "city": "Clermont", "timezone": "America/New_York", "location": {"type": "Point", "coordinates": [-81.77285, 28.54944]}}}, {"id": 54, "type_name": "modules/geo_models/company", "properties": {"name": "Stanley LLC, and Sons", "description": "Sharable local knowledge user", "city": "Greenville", "timezone": "America/Chicago", "location": {"type": "Point", "coordinates": [-91.06177, 33.41012]}}}, {"id": 55, "type_name": "modules/geo_models/company", "properties": {"name": "Berg-Vargas, PLC", "description": "Down-sized global hierarchy", "city": "Sterling", "timezone": "America/New_York", "location": {"type": "Point", "coordinates": [-77.4286, 39.00622]}}}, {"id": 56, "type_name": "modules/geo_models/company", "properties": {"name": "Nguyen-Wilson, Group", "description": "Up-sized incremental function", "city": "Pleasant Prairie", "timezone": "America/Chicago", "location": {"type": "Point", "coordinates": [-87.93341, 42.55308]}}}, {"id": 57, "type_name": "modules/geo_models/company", "properties": {"name": "Contreras, Graves and Schneider, Group", "description": "Grass-roots dedicated hierarchy", "city": "Independence", "timezone": "America/Chicago", "location": {"type": "Point", "coordinates": [-94.41551, 39.09112]}}}, {"id": 58, "type_name": "modules/geo_models/company", "properties": {"name": "Adams, Robinson and Pope, PLC", "description": "Automated incremental access", "city": "Cypress Hills", "timezone": "America/New_York", "location": {"type": "Point", "coordinates": [-73.89125, 40.67705]}}}, {"id": 59, "type_name": "modules/geo_models/company", "properties": {"name": "Johnson, Hall and Manning, Ltd", "description": "Configurable multi-tasking hub", "city": "Abilene", "timezone": "America/Chicago", "location": {"type": "Point", "coordinates": [-99.73314, 32.44874]}}}, {"id": 60, "type_name": "modules/geo_models/company", "properties": {"name": "Coleman-Spencer, Inc", "description": "Switchable exuding policy", "city": "Glendale", "timezone": "America/Los_Angeles", "location": {"type": "Point", "coordinates": [-118.25508, 34.14251]}}}, {"id": 61, "type_name": "modules/geo_models/company", "properties": {"name": "Cruz Inc, LLC", "description": "Cross-group fault-tolerant pricing structure", "city": "Port Huron", "timezone": "America/Detroit", "location": {"type": "Point", "coordinates": [-82.42491, 42.97086]}}}, {"id": 62, "type_name": "modules/geo_models/company", "properties": {"name": "Holder, Dorsey and Graves, Inc", "description": "Synchronized neutral approach", "city": "Lebanon", "timezone": "America/New_York", "location": {"type": "Point", "coordinates": [-84.20299, 39.43534]}}}, {"id": 63, "type_name": "modules/geo_models/company", "properties": {"name": "Frye-Hartman, Inc", "description": "Multi-lateral national task-force", "city": "Palm Desert", "timezone": "America/Los_Angeles", "location": {"type": "Point", "coordinates": [-116.37697, 33.72255]}}}, {"id": 64, "type_name": "modules/geo_models/company", "properties": {"name": "Dyer Ltd, PLC", "description": "Devolved stable adapter", "city": "Encinitas", "timezone": "America/Los_Angeles", "location": {"type": "Point", "coordinates": [-117.29198, 33.03699]}}}, {"id": 65, "type_name": "modules/geo_models/company", "properties": {"name": "Raymond-Lawrence, Inc", "description": "Multi-lateral secondary framework", "city": "Lexington", "timezone": "America/New_York", "location": {"type": "Point", "coordinates": [-81.23621, 33.98154]}}}, {"id": 66, "type_name": "modules/geo_models/company", "properties": {"name": "James PLC, PLC", "description": "Proactive real-time hierarchy", "city": "Brunswick", "timezone": "America/New_York", "location": {"type": "Point", "coordinates": [-69.96533, 43.91452]}}}, {"id": 67, "type_name": "modules/geo_models/company", "properties": {"name": "Gardner Inc, LLC", "description": "Assimilated static analyzer", "city": "New City", "timezone": "America/Chicago", "location": {"type": "Point", "coordinates": [-87.65644, 41.80753]}}}, {"id": 68, "type_name": "modules/geo_models/company", "properties": {"name": "Allen, Schroeder and Kennedy, PLC", "description": "Ergonomic even-keeled leverage", "city": "Mira Mesa", "timezone": "America/Los_Angeles", "location": {"type": "Point", "coordinates": [-117.14392, 32.9156]}}}, {"id": 69, "type_name": "modules/geo_models/company", "properties": {"name": "Carr-Collins, Group", "description": "Re-contextualized systemic task-force", "city": "Hueytown", "timezone": "America/Chicago", "location": {"type": "Point", "coordinates": [-86.99666, 33.45122]}}}, {"id": 70, "type_name": "modules/geo_models/company", "properties": {"name": "Young LLC, Group", "description": "Reduced user-facing matrix", "city": "Sterling", "timezone": "America/New_York", "location": {"type": "Point", "coordinates": [-77.4286, 39.00622]}}}, {"id": 71, "type_name": "modules/geo_models/company", "properties": {"name": "Davis-Gaines, LLC", "description": "Devolved directional alliance", "city": "Aurora", "timezone": "America/Denver", "location": {"type": "Point", "coordinates": [-104.83192, 39.72943]}}}, {"id": 72, "type_name": "modules/geo_models/company", "properties": {"name": "Murphy Group, Inc", "description": "Multi-lateral intermediate architecture", "city": "Chillum", "timezone": "America/New_York", "location": {"type": "Point", "coordinates": [-76.99081, 38.96372]}}}, {"id": 73, "type_name": "modules/geo_models/company", "properties": {"name": "Gill Group, Ltd", "description": "Assimilated intermediate workforce", "city": "Belle Glade", "timezone": "America/New_York", "location": {"type": "Point", "coordinates": [-80.66756, 26.68451]}}}, {"id": 74, "type_name": "modules/geo_models/company", "properties": {"name": "Nichols-Montgomery, and Sons", "description": "Implemented full-range Internet solution", "city": "Opportunity", "timezone": "America/Los_Angeles", "location": {"type": "Point", "coordinates": [-117.23991, 47.64995]}}}, {"id": 75, "type_name": "modules/geo_models/company", "properties": {"name": "Johnson, Gutierrez and Powers, LLC", "description": "Vision-oriented zero-defect capability", "city": "Opportunity", "timezone": "America/Los_Angeles", "location": {"type": "Point", "coordinates": [-117.23991, 47.64995]}}}, {"id": 76, "type_name": "modules/geo_models/company", "properties": {"name": "Baldwin and Sons, Ltd", "description": "Cross-platform neutral website", "city": "West Des Moines", "timezone": "America/Chicago", "location": {"type": "Point", "coordinates": [-93.71133, 41.57721]}}}, {"id": 77, "type_name": "modules/geo_models/company", "properties": {"name": "Mills, Sanchez and Leonard, Ltd", "description": "Pre-emptive needs-based function", "city": "North Tustin", "timezone": "America/Los_Angeles", "location": {"type": "Point", "coordinates": [-117.79394, 33.76446]}}}, {"id": 78, "type_name": "modules/geo_models/company", "properties": {"name": "Frank, Wilkerson and Boyer, Group", "description": "Balanced 3rdgeneration forecast", "city": "Cypress Hills", "timezone": "America/New_York", "location": {"type": "Point", "coordinates": [-73.89125, 40.67705]}}}, {"id": 79, "type_name": "modules/geo_models/company", "properties": {"name": "Russell LLC, Inc", "description": "Persevering tertiary software", "city": "North Lauderdale", "timezone": "America/New_York", "location": {"type": "Point", "coordinates": [-80.22588, 26.2173]}}}, {"id": 80, "type_name": "modules/geo_models/company", "properties": {"name": "Edwards, Singh and Christian, LLC", "description": "Fundamental mobile projection", "city": "Scarsdale", "timezone": "America/New_York", "location": {"type": "Point", "coordinates": [-73.78458, 41.0051]}}}, {"id": 81, "type_name": "modules/geo_models/company", "properties": {"name": "Cooper Ltd, and Sons", "description": "Self-enabling systematic definition", "city": "Canton", "timezone": "America/Detroit", "location": {"type": "Point", "coordinates": [-83.48216, 42.30865]}}}, {"id": 82, "type_name": "modules/geo_models/company", "properties": {"name": "Davis, Massey and Williams, Group", "description": "Cross-platform non-volatile ability", "city": "Norco", "timezone": "America/Los_Angeles", "location": {"type": "Point", "coordinates": [-117.54866, 33.93113]}}}, {"id": 83, "type_name": "modules/geo_models/company", "properties": {"name": "Brown and Sons, Inc", "description": "Re-contextualized tangible intranet", "city": "Far Rockaway", "timezone": "America/New_York", "location": {"type": "Point", "coordinates": [-73.75513, 40.60538]}}}, {"id": 84, "type_name": "modules/geo_models/company", "properties": {"name": "Weber, Turner and May, Ltd", "description": "Grass-roots foreground budgetary management", "city": "Belle Glade", "timezone": "America/New_York", "location": {"type": "Point", "coordinates": [-80.66756, 26.68451]}}}, {"id": 85, "type_name": "modules/geo_models/company", "properties": {"name": "Jones, Dickson and Church, Ltd", "description": "Inverse human-resource knowledge user", "city": "Encinitas", "timezone": "America/Los_Angeles", "location": {"type": "Point", "coordinates": [-117.29198, 33.03699]}}}, {"id": 86, "type_name": "modules/geo_models/company", "properties": {"name": "Reyes-Guzman, Group", "description": "Business-focused bi-directional Internet solution", "city": "Opportunity", "timezone": "America/Los_Angeles", "location": {"type": "Point", "coordinates": [-117.23991, 47.64995]}}}, {"id": 87, "type_name": "modules/geo_models/company", "properties": {"name": "Pope-Booker, LLC", "description": "User-friendly bandwidth-monitored throughput", "city": "Rosedale", "timezone": "America/New_York", "location": {"type": "Point", "coordinates": [-76.51552, 39.32011]}}}, {"id": 88, "type_name": "modules/geo_models/company", "properties": {"name": "Brown-Mcdonald, Group", "description": "Upgradable zero-defect synergy", "city": "Coralville", "timezone": "America/Chicago", "location": {"type": "Point", "coordinates": [-91.58045, 41.6764]}}}, {"id": 89, "type_name": "modules/geo_models/company", "properties": {"name": "Williams-Harmon, Inc", "description": "Universal transitional customer loyalty", "city": "Fairview Heights", "timezone": "America/Chicago", "location": {"type": "Point", "coordinates": [-89.99038, 38.58894]}}}, {"id": 90, "type_name": "modules/geo_models/company", "properties": {"name": "Johnson-Mccormick, and Sons", "description": "Face-to-face upward-trending orchestration", "city": "Greenfield", "timezone": "America/Indiana/Indianapolis", "location": {"type": "Point", "coordinates": [-85.76942, 39.78504]}}}, {"id": 91, "type_name": "modules/geo_models/company", "properties": {"name": "Blake-Todd, and Sons", "description": "Fully-configurable zero tolerance hierarchy", "city": "West Chester", "timezone": "America/New_York", "location": {"type": "Point", "coordinates": [-75.60804, 39.96097]}}}, {"id": 92, "type_name": "modules/geo_models/company", "properties": {"name": "Smith, Thompson and Williams, Inc", "description": "Down-sized multi-tasking task-force", "city": "Deltona", "timezone": "America/New_York", "location": {"type": "Point", "coordinates": [-81.26367, 28.90054]}}}, {"id": 93, "type_name": "modules/geo_models/company", "properties": {"name": "Norton-Moore, PLC", "description": "Enterprise-wide client-driven conglomeration", "city": "Watsonville", "timezone": "America/Los_Angeles", "location": {"type": "Point", "coordinates": [-121.75689, 36.91023]}}}, {"id": 94, "type_name": "modules/geo_models/company", "properties": {"name": "Ray-Tyler, and Sons", "description": "Pre-emptive transitional extranet", "city": "Belle Glade", "timezone": "America/New_York", "location": {"type": "Point", "coordinates": [-80.66756, 26.68451]}}}, {"id": 95, "type_name": "modules/geo_models/company", "properties": {"name": "Simpson, Cox and Hooper, PLC", "description": "Focused impactful intranet", "city": "Belle Glade", "timezone": "America/New_York", "location": {"type": "Point", "coordinates": [-80.66756, 26.68451]}}}, {"id": 96, "type_name": "modules/geo_models/company", "properties": {"name": "Jones, Williams and Townsend, Group", "description": "Team-oriented empowering interface", "city": "Brighton Beach", "timezone": "America/New_York", "location": {"type": "Point", "coordinates": [-73.95958, 40.57788]}}}, {"id": 97, "type_name": "modules/geo_models/company", "properties": {"name": "Thomas-Rivas, PLC", "description": "Distributed uniform hierarchy", "city": "Saratoga Springs", "timezone": "America/Denver", "location": {"type": "Point", "coordinates": [-111.90466, 40.34912]}}}, {"id": 98, "type_name": "modules/geo_models/company", "properties": {"name": "Kelley-Davis, Ltd", "description": "Synergized 24hour project", "city": "Saratoga Springs", "timezone": "America/Denver", "location": {"type": "Point", "coordinates": [-111.90466, 40.34912]}}}, {"id": 99, "type_name": "modules/geo_models/company", "properties": {"name": "Underwood, Evans and Williams, Ltd", "description": "Customizable zero administration analyzer", "city": "Rosedale", "timezone": "America/New_York", "location": {"type": "Point", "coordinates": [-76.51552, 39.32011]}}}, {"id": 100, "type_name": "modules/geo_models/company", "properties": {"name": "Kirk Inc, LLC", "description": "Customizable needs-based task-force", "city": "West Chester", "timezone": "America/New_York", "location": {"type": "Point", "coordinates": [-75.60804, 39.96097]}}}, {"id": 101, "type_name": "modules/geo_models/company", "properties": {"name": "Cannon PLC, Group", "description": "Integrated composite matrix", "city": "Dumont", "timezone": "America/New_York", "location": {"type": "Point", "coordinates": [-73.99681, 40.94065]}}}, {"id": 102, "type_name": "modules/geo_models/company", "properties": {"name": "Kerr Group, PLC", "description": "Managed even-keeled knowledge user", "city": "Dumont", "timezone": "America/New_York", "location": {"type": "Point", "coordinates": [-73.99681, 40.94065]}}}, {"id": 103, "type_name": "modules/geo_models/company", "properties": {"name": "Bauer-King, Inc", "description": "Enterprise-wide well-modulated throughput", "city": "Visitacion Valley", "timezone": "America/Los_Angeles", "location": {"type": "Point", "coordinates": [-122.40433, 37.71715]}}}, {"id": 104, "type_name": "modules/geo_models/company", "properties": {"name": "Aguilar, Weber and Rogers, Ltd", "description": "Pre-emptive zero-defect installation", "city": "Thomasville", "timezone": "America/New_York", "location": {"type": "Point", "coordinates": [-80.08199, 35.88264]}}}, {"id": 105, "type_name": "modules/geo_models/company", "properties": {"name": "Lang, Evans and Mitchell, Ltd", "description": "Centralized solution-oriented forecast", "city": "Gilbert", "timezone": "America/Phoenix", "location": {"type": "Point", "coordinates": [-111.78903, 33.35283]}}}, {"id": 106, "type_name": "modules/geo_models/company", "properties": {"name": "Hernandez, Hale and Ford, LLC", "description": "Public-key eco-centric moratorium", "city": "Abilene", "timezone": "America/Chicago", "location": {"type": "Point", "coordinates": [-99.73314, 32.44874]}}}, {"id": 107, "type_name": "modules/geo_models/company", "properties": {"name": "Grant Group, LLC", "description": "Balanced 4thgeneration intranet", "city": "Nampa", "timezone": "America/Boise", "location": {"type": "Point", "coordinates": [-116.56346, 43.54072]}}}, {"id": 108, "type_name": "modules/geo_models/company", "properties": {"name": "Andrews Ltd, and Sons", "description": "Horizontal systemic help-desk", "city": "Encinitas", "timezone": "America/Los_Angeles", "location": {"type": "Point", "coordinates": [-117.29198, 33.03699]}}}, {"id": 109, "type_name": "modules/geo_models/company", "properties": {"name": "Dennis Inc, Ltd", "description": "Intuitive even-keeled workforce", "city": "Ada", "timezone": "America/Chicago", "location": {"type": "Point", "coordinates": [-96.67834, 34.77453]}}}, {"id": 110, "type_name": "modules/geo_models/company", "properties": {"name": "Benson-Mccarthy, LLC", "description": "Programmable leadingedge array", "city": "Kent", "timezone": "America/Los_Angeles", "location": {"type": "Point", "coordinates": [-122.23484, 47.38093]}}}, {"id": 111, "type_name": "modules/geo_models/company", "properties": {"name": "Gordon-Collins, Group", "description": "Advanced mobile Graphical User Interface", "city": "Waterbury", "timezone": "America/New_York", "location": {"type": "Point", "coordinates": [-73.0515, 41.55815]}}}, {"id": 112, "type_name": "modules/geo_models/company", "properties": {"name": "Roberts Group, Inc", "description": "Multi-lateral dynamic flexibility", "city": "Gilbert", "timezone": "America/Phoenix", "location": {"type": "Point", "coordinates": [-111.78903, 33.35283]}}}, {"id": 113, "type_name": "modules/geo_models/company", "properties": {"name": "Mason Ltd, LLC", "description": "Multi-tiered transitional paradigm", "city": "Watsonville", "timezone": "America/Los_Angeles", "location": {"type": "Point", "coordinates": [-121.75689, 36.91023]}}}, {"id": 114, "type_name": "modules/geo_models/company", "properties": {"name": "Johnson and Sons, Inc", "description": "Intuitive holistic matrix", "city": "Pottstown", "timezone": "America/New_York", "location": {"type": "Point", "coordinates": [-75.64963, 40.24537]}}}, {"id": 115, "type_name": "modules/geo_models/company", "properties": {"name": "Powell, Church and Lozano, Inc", "description": "Expanded analyzing alliance", "city": "Davis", "timezone": "America/Los_Angeles", "location": {"type": "Point", "coordinates": [-121.74052, 38.54491]}}}, {"id": 116, "type_name": "modules/geo_models/company", "properties": {"name": "Anderson-Campbell, Inc", "description": "Optimized regional alliance", "city": "Pekin", "timezone": "America/Chicago", "location": {"type": "Point", "coordinates": [-89.64066, 40.56754]}}}, {"id": 117, "type_name": "modules/geo_models/company", "properties": {"name": "Humphrey, Hines and Carlson, Inc", "description": "Centralized analyzing system engine", "city": "Aurora", "timezone": "America/Denver", "location": {"type": "Point", "coordinates": [-104.83192, 39.72943]}}}, {"id": 118, "type_name": "modules/geo_models/company", "properties": {"name": "Campbell LLC, and Sons", "description": "Extended directional approach", "city": "San Juan", "timezone": "America/Chicago", "location": {"type": "Point", "coordinates": [-98.15529, 26.18924]}}}, {"id": 119, "type_name": "modules/geo_models/company", "properties": {"name": "Garza and Sons, and Sons", "description": "Fundamental methodical parallelism", "city": "Deltona", "timezone": "America/New_York", "location": {"type": "Point", "coordinates": [-81.26367, 28.90054]}}}, {"id": 120, "type_name": "modules/geo_models/company", "properties": {"name": "Brown, Miller and Mason, PLC", "description": "Monitored optimizing encryption", "city": "Scotch Plains", "timezone": "America/New_York", "location": {"type": "Point", "coordinates": [-74.38987, 40.65538]}}}, {"id": 121, "type_name": "modules/geo_models/company", "properties": {"name": "Vazquez, Richardson and Clarke, and Sons", "description": "Advanced even-keeled data-warehouse", "city": "Hutchinson", "timezone": "America/Chicago", "location": {"type": "Point", "coordinates": [-97.92977, 38.06084]}}}, {"id": 122, "type_name": "modules/geo_models/company", "properties": {"name": "Smith, Reed and Harrell, Inc", "description": "Cross-platform grid-enabled policy", "city": "West Chester", "timezone": "America/New_York", "location": {"type": "Point", "coordinates": [-75.60804, 39.96097]}}}, {"id": 123, "type_name": "modules/geo_models/company", "properties": {"name": "Cummings-Bell, LLC", "description": "Progressive systematic Local Area Network", "city": "Canton", "timezone": "America/Detroit", "location": {"type": "Point", "coordinates": [-83.48216, 42.30865]}}}, {"id": 124, "type_name": "modules/geo_models/company", "properties": {"name": "Brown, Cohen and White, PLC", "description": "Fundamental directional help-desk", "city": "Kearns", "timezone": "America/Denver", "location": {"type": "Point", "coordinates": [-111.99633, 40.65995]}}}, {"id": 125, "type_name": "modules/geo_models/company", "properties": {"name": "Duke Inc, and Sons", "description": "Total hybrid Internet solution", "city": "Evergreen Park", "timezone": "America/Chicago", "location": {"type": "Point", "coordinates": [-87.70172, 41.72059]}}}, {"id": 126, "type_name": "modules/geo_models/company", "properties": {"name": "Johnson, Kim and Randolph, PLC", "description": "Up-sized neutral hardware", "city": "Lebanon", "timezone": "America/New_York", "location": {"type": "Point", "coordinates": [-84.20299, 39.43534]}}}, {"id": 127, "type_name": "modules/geo_models/company", "properties": {"name": "Brown-Dennis, PLC", "description": "Secured solution-oriented encoding", "city": "Palestine", "timezone": "America/Chicago", "location": {"type": "Point", "coordinates": [-95.63079, 31.76212]}}}, {"id": 128, "type_name": "modules/geo_models/company", "properties": {"name": "Brown LLC, Ltd", "description": "Enterprise-wide leadingedge approach", "city": "Milledgeville", "timezone": "America/New_York", "location": {"type": "Point", "coordinates": [-83.2321, 33.08014]}}}, {"id": 129, "type_name": "modules/geo_models/company", "properties": {"name": "Ortiz, Hurst and Caldwell, Group", "description": "Persevering coherent benchmark", "city": "Saratoga Springs", "timezone": "America/Denver", "location": {"type": "Point", "coordinates": [-111.90466, 40.34912]}}}, {"id": 130, "type_name": "modules/geo_models/company", "properties": {"name": "Fox, Harding and Campbell, LLC", "description": "Down-sized upward-trending attitude", "city": "Rutland", "timezone": "America/New_York", "location": {"type": "Point", "coordinates": [-72.97261, 43.61062]}}}, {"id": 131, "type_name": "modules/geo_models/company", "properties": {"name": "Aguilar LLC, Inc", "description": "Configurable local infrastructure", "city": "Scottsdale", "timezone": "America/Phoenix", "location": {"type": "Point", "coordinates": [-111.89903, 33.50921]}}}, {"id": 132, "type_name": "modules/geo_models/company", "properties": {"name": "Foley-Torres, LLC", "description": "Self-enabling asymmetric throughput", "city": "West Chester", "timezone": "America/New_York", "location": {"type": "Point", "coordinates": [-75.60804, 39.96097]}}}, {"id": 133, "type_name": "modules/geo_models/company", "properties": {"name": "Reynolds, Smith and Green, Ltd", "description": "Centralized static contingency", "city": "Waterbury", "timezone": "America/New_York", "location": {"type": "Point", "coordinates": [-73.0515, 41.55815]}}}, {"id": 134, "type_name": "modules/geo_models/company", "properties": {"name": "Smith-Garcia, PLC", "description": "Inverse bottom-line analyzer", "city": "Fairview Heights", "timezone": "America/Chicago", "location": {"type": "Point", "coordinates": [-89.99038, 38.58894]}}}, {"id": 135, "type_name": "modules/geo_models/company", "properties": {"name": "Johnson-Haynes, Inc", "description": "Inverse radical core", "city": "Waverly", "timezone": "America/Detroit", "location": {"type": "Point", "coordinates": [-84.62081, 42.7392]}}}, {"id": 136, "type_name": "modules/geo_models/company", "properties": {"name": "Page PLC, LLC", "description": "Seamless tertiary contingency", "city": "Pottstown", "timezone": "America/New_York", "location": {"type": "Point", "coordinates": [-75.64963, 40.24537]}}}, {"id": 137, "type_name": "modules/geo_models/company", "properties": {"name": "Lyons-Monroe, and Sons", "description": "Self-enabling static budgetary management", "city": "Huntley", "timezone": "America/Chicago", "location": {"type": "Point", "coordinates": [-88.42814, 42.16808]}}}, {"id": 138, "type_name": "modules/geo_models/company", "properties": {"name": "Perkins Group, LLC", "description": "Team-oriented zero-defect application", "city": "Palm Valley", "timezone": "America/New_York", "location": {"type": "Point", "coordinates": [-81.38758, 30.17746]}}}, {"id": 139, "type_name": "modules/geo_models/company", "properties": {"name": "Hicks and Sons, Inc", "description": "Sharable 24/7 Internet solution", "city": "Longview", "timezone": "America/Chicago", "location": {"type": "Point", "coordinates": [-94.74049, 32.5007]}}}, {"id": 140, "type_name": "modules/geo_models/company", "properties": {"name": "Barrett, Hunter and Mcfarland, Ltd", "description": "Adaptive bi-directional firmware", "city": "Longview", "timezone": "America/Chicago", "location": {"type": "Point", "coordinates": [-94.74049, 32.5007]}}}, {"id": 141, "type_name": "modules/geo_models/company", "properties": {"name": "Clarke LLC, Ltd", "description": "Innovative uniform protocol", "city": "Far Rockaway", "timezone": "America/New_York", "location": {"type": "Point", "coordinates": [-73.75513, 40.60538]}}}, {"id": 142, "type_name": "modules/geo_models/company", "properties": {"name": "Ross, Mccarthy and Scott, Inc", "description": "Open-source foreground website", "city": "Kahului", "timezone": "Pacific/Honolulu", "location": {"type": "Point", "coordinates": [-156.47432, 20.88953]}}}, {"id": 143, "type_name": "modules/geo_models/company", "properties": {"name": "Jackson, Daniels and Ramirez, PLC", "description": "Object-based contextually-based architecture", "city": "Lebanon", "timezone": "America/New_York", "location": {"type": "Point", "coordinates": [-84.20299, 39.43534]}}}, {"id": 144, "type_name": "modules/geo_models/company", "properties": {"name": "Reynolds-Conrad, LLC", "description": "Mandatory 3rdgeneration hardware", "city": "Aloha", "timezone": "America/Los_Angeles", "location": {"type": "Point", "coordinates": [-122.86705, 45.49428]}}}, {"id": 145, "type_name": "modules/geo_models/company", "properties": {"name": "Long Group, LLC", "description": "Universal fault-tolerant paradigm", "city": "Clermont", "timezone": "America/New_York", "location": {"type": "Point", "coordinates": [-81.77285, 28.54944]}}}, {"id": 146, "type_name": "modules/geo_models/company", "properties": {"name": "Gomez-Green, LLC", "description": "Up-sized mission-critical service-desk", "city": "Encinitas", "timezone": "America/Los_Angeles", "location": {"type": "Point", "coordinates": [-117.29198, 33.03699]}}}, {"id": 147, "type_name": "modules/geo_models/company", "properties": {"name": "Baker, Robinson and Williams, Ltd", "description": "Pre-emptive uniform budgetary management", "city": "Morningside Heights", "timezone": "America/New_York", "location": {"type": "Point", "coordinates": [-73.9625, 40.81]}}}, {"id": 148, "type_name": "modules/geo_models/company", "properties": {"name": "Nelson, Atkins and Price, and Sons", "description": "Triple-buffered zero administration migration", "city": "Fresno", "timezone": "America/Chicago", "location": {"type": "Point", "coordinates": [-95.44744, 29.53885]}}}, {"id": 149, "type_name": "modules/geo_models/company", "properties": {"name": "Rhodes-Terry, LLC", "description": "Inverse executive artificial intelligence", "city": "Hutto", "timezone": "America/Chicago", "location": {"type": "Point", "coordinates": [-97.54667, 30.5427]}}}, {"id": 150, "type_name": "modules/geo_models/company", "properties": {"name": "Warner-May, Ltd", "description": "Re-engineered upward-trending monitoring", "city": "Taunton", "timezone": "America/New_York", "location": {"type": "Point", "coordinates": [-71.08977, 41.9001]}}}, {"id": 151, "type_name": "modules/geo_models/company", "properties": {"name": "Alexander Group, PLC", "description": "Quality-focused dedicated intranet", "city": "Middletown", "timezone": "America/New_York", "location": {"type": "Point", "coordinates": [-71.29144, 41.54566]}}}, {"id": 152, "type_name": "modules/geo_models/company", "properties": {"name": "Shaw-Welch, and Sons", "description": "Profound disintermediate open system", "city": "Davis", "timezone": "America/Los_Angeles", "location": {"type": "Point", "coordinates": [-121.74052, 38.54491]}}}, {"id": 153, "type_name": "modules/geo_models/company", "properties": {"name": "Jones Group, and Sons", "description": "Customizable exuding encoding", "city": "Pahrump", "timezone": "America/Los_Angeles", "location": {"type": "Point", "coordinates": [-115.98391, 36.20829]}}}, {"id": 154, "type_name": "modules/geo_models/company", "properties": {"name": "King-Parker, LLC", "description": "User-friendly executive software", "city": "Kearns", "timezone": "America/Denver", "location": {"type": "Point", "coordinates": [-111.99633, 40.65995]}}}, {"id": 155, "type_name": "modules/geo_models/company", "properties": {"name": "Bryan, Diaz and Richards, and Sons", "description": "Triple-buffered human-resource interface", "city": "Bothell West", "timezone": "America/Los_Angeles", "location": {"type": "Point", "coordinates": [-122.24064, 47.80527]}}}, {"id": 156, "type_name": "modules/geo_models/company", "properties": {"name": "Salazar Inc, Group", "description": "Multi-channeled multi-state website", "city": "Sterling", "timezone": "America/New_York", "location": {"type": "Point", "coordinates": [-77.4286, 39.00622]}}}, {"id": 157, "type_name": "modules/geo_models/company", "properties": {"name": "Cooke-Allen, LLC", "description": "Universal foreground pricing structure", "city": "Woodbridge", "timezone": "America/New_York", "location": {"type": "Point", "coordinates": [-74.28459, 40.5576]}}}, {"id": 158, "type_name": "modules/geo_models/company", "properties": {"name": "Sullivan PLC, Ltd", "description": "Cross-group hybrid emulation", "city": "South Whittier", "timezone": "America/Los_Angeles", "location": {"type": "Point", "coordinates": [-118.03917, 33.95015]}}}, {"id": 159, "type_name": "modules/geo_models/company", "properties": {"name": "Richardson, Rasmussen and Yu, Group", "description": "Adaptive grid-enabled productivity", "city": "Watsonville", "timezone": "America/Los_Angeles", "location": {"type": "Point", "coordinates": [-121.75689, 36.91023]}}}, {"id": 160, "type_name": "modules/geo_models/company", "properties": {"name": "Moreno PLC, Inc", "description": "Optimized zero administration model", "city": "Utica", "timezone": "America/New_York", "location": {"type": "Point", "coordinates": [-75.23266, 43.1009]}}}, {"id": 161, "type_name": "modules/geo_models/company", "properties": {"name": "Watkins PLC, PLC", "description": "Synergistic asymmetric encryption", "city": "North Tustin", "timezone": "America/Los_Angeles", "location": {"type": "Point", "coordinates": [-117.79394, 33.76446]}}}, {"id": 162, "type_name": "modules/geo_models/company", "properties": {"name": "Ford-King, Inc", "description": "Triple-buffered executive infrastructure", "city": "Coralville", "timezone": "America/Chicago", "location": {"type": "Point", "coordinates": [-91.58045, 41.6764]}}}, {"id": 163, "type_name": "modules/geo_models/company", "properties": {"name": "Hall-Morris, and Sons", "description": "Compatible analyzing capacity", "city": "Gilbert", "timezone": "America/Phoenix", "location": {"type": "Point", "coordinates": [-111.78903, 33.35283]}}}, {"id": 164, "type_name": "modules/geo_models/company", "properties": {"name": "Wang, Taylor and Thomas, LLC", "description": "Multi-tiered methodical benchmark", "city": "Dublin", "timezone": "America/New_York", "location": {"type": "Point", "coordinates": [-82.90375, 32.54044]}}}, {"id": 165, "type_name": "modules/geo_models/company", "properties": {"name": "Ingram Ltd, and Sons", "description": "Switchable executive secured line", "city": "Saratoga Springs", "timezone": "America/Denver", "location": {"type": "Point", "coordinates": [-111.90466, 40.34912]}}}, {"id": 166, "type_name": "modules/geo_models/company", "properties": {"name": "Walker-Moss, LLC", "description": "Reactive next generation analyzer", "city": "Woodbridge", "timezone": "America/New_York", "location": {"type": "Point", "coordinates": [-74.28459, 40.5576]}}}, {"id": 167, "type_name": "modules/geo_models/company", "properties": {"name": "Cole PLC, Ltd", "description": "Configurable 24/7 contingency", "city": "Morningside Heights", "timezone": "America/New_York", "location": {"type": "Point", "coordinates": [-73.9625, 40.81]}}}, {"id": 168, "type_name": "modules/geo_models/company", "properties": {"name": "Stevens, Jones and Baker, LLC", "description": "Ergonomic transitional matrix", "city": "Odessa", "timezone": "America/Chicago", "location": {"type": "Point", "coordinates": [-102.36764, 31.84568]}}}, {"id": 169, "type_name": "modules/geo_models/company", "properties": {"name": "Morris Ltd, Group", "description": "Ergonomic hybrid help-desk", "city": "Belle Glade", "timezone": "America/New_York", "location": {"type": "Point", "coordinates": [-80.66756, 26.68451]}}}, {"id": 170, "type_name": "modules/geo_models/company", "properties": {"name": "Snyder-Martinez, and Sons", "description": "User-friendly responsive focus group", "city": "Fort Washington", "timezone": "America/New_York", "location": {"type": "Point", "coordinates": [-77.02303, 38.70734]}}}, {"id": 171, "type_name": "modules/geo_models/company", "properties": {"name": "Adkins, Crosby and Mitchell, PLC", "description": "Horizontal analyzing productivity", "city": "Acworth", "timezone": "America/New_York", "location": {"type": "Point", "coordinates": [-84.67837, 34.06635]}}}, {"id": 172, "type_name": "modules/geo_models/company", "properties": {"name": "Murray, Hooper and Bridges, and Sons", "description": "Automated incremental capacity", "city": "Nutley", "timezone": "America/New_York", "location": {"type": "Point", "coordinates": [-74.15987, 40.82232]}}}, {"id": 173, "type_name": "modules/geo_models/company", "properties": {"name": "Blankenship, Barrett and Jones, and Sons", "description": "Visionary directional software", "city": "Mechanicsville", "timezone": "America/New_York", "location": {"type": "Point", "coordinates": [-77.37331, 37.60876]}}}, {"id": 174, "type_name": "modules/geo_models/company", "properties": {"name": "Kane, Flores and Smith, Group", "description": "Decentralized coherent application", "city": "Tupelo", "timezone": "America/Chicago", "location": {"type": "Point", "coordinates": [-88.70464, 34.25807]}}}, {"id": 175, "type_name": "modules/geo_models/company", "properties": {"name": "Huang Ltd, Ltd", "description": "Cloned contextually-based emulation", "city": "Independence", "timezone": "America/Chicago", "location": {"type": "Point", "coordinates": [-94.41551, 39.09112]}}}, {"id": 176, "type_name": "modules/geo_models/company", "properties": {"name": "Sanchez and Sons, Group", "description": "Intuitive homogeneous software", "city": "Riverbank", "timezone": "America/Los_Angeles", "location": {"type": "Point", "coordinates": [-120.93549, 37.73604]}}}, {"id": 177, "type_name": "modules/geo_models/company", "properties": {"name": "Phillips-Bell, Ltd", "description": "Reverse-engineered attitude-oriented toolset", "city": "Utica", "timezone": "America/New_York", "location": {"type": "Point", "coordinates": [-75.23266, 43.1009]}}}, {"id": 178, "type_name": "modules/geo_models/company", "properties": {"name": "Cain LLC, Ltd", "description": "Fundamental value-added workforce", "city": "Palestine", "timezone": "America/Chicago", "location": {"type": "Point", "coordinates": [-95.63079, 31.76212]}}}, {"id": 179, "type_name": "modules/geo_models/company", "properties": {"name": "Saunders Group, LLC", "description": "Re-engineered directional budgetary management", "city": "Bridgeport", "timezone": "America/New_York", "location": {"type": "Point", "coordinates": [-73.20483, 41.16704]}}}, {"id": 180, "type_name": "modules/geo_models/company", "properties": {"name": "Brown Ltd, and Sons", "description": "De-engineered high-level middleware", "city": "Muskogee", "timezone": "America/Chicago", "location": {"type": "Point", "coordinates": [-95.36969, 35.74788]}}}, {"id": 181, "type_name": "modules/geo_models/company", "properties": {"name": "Miller, Sims and Lam, Group", "description": "Advanced optimizing intranet", "city": "Palm Valley", "timezone": "America/New_York", "location": {"type": "Point", "coordinates": [-81.38758, 30.17746]}}}, {"id": 182, "type_name": "modules/geo_models/company", "properties": {"name": "Houston Ltd, LLC", "description": "Implemented upward-trending secured line", "city": "Lino Lakes", "timezone": "America/Chicago", "location": {"type": "Point", "coordinates": [-93.08883, 45.16024]}}}, {"id": 183, "type_name": "modules/geo_models/company", "properties": {"name": "Mcbride and Sons, LLC", "description": "Object-based full-range contingency", "city": "Schererville", "timezone": "America/Chicago", "location": {"type": "Point", "coordinates": [-87.45476, 41.47892]}}}, {"id": 184, "type_name": "modules/geo_models/company", "properties": {"name": "Hooper-Allen, Ltd", "description": "Operative mission-critical task-force", "city": "Longview", "timezone": "America/Chicago", "location": {"type": "Point", "coordinates": [-94.74049, 32.5007]}}}, {"id": 185, "type_name": "modules/geo_models/company", "properties": {"name": "Johnson, Hernandez and Middleton, Group", "description": "Down-sized background access", "city": "Jersey City", "timezone": "America/New_York", "location": {"type": "Point", "coordinates": [-74.07764, 40.72816]}}}, {"id": 186, "type_name": "modules/geo_models/company", "properties": {"name": "Reyes Group, PLC", "description": "Distributed encompassing instruction set", "city": "Camarillo", "timezone": "America/Los_Angeles", "location": {"type": "Point", "coordinates": [-119.0376, 34.21639]}}}, {"id": 187, "type_name": "modules/geo_models/company", "properties": {"name": "Thomas Ltd, LLC", "description": "Ameliorated 24/7 throughput", "city": "Gainesville", "timezone": "America/New_York", "location": {"type": "Point", "coordinates": [-82.32483, 29.65163]}}}, {"id": 188, "type_name": "modules/geo_models/company", "properties": {"name": "Taylor-Kim, Inc", "description": "Enterprise-wide bifurcated contingency", "city": "Watsonville", "timezone": "America/Los_Angeles", "location": {"type": "Point", "coordinates": [-121.75689, 36.91023]}}}, {"id": 189, "type_name": "modules/geo_models/company", "properties": {"name": "Mathews, Davis and Montes, Inc", "description": "Front-line national portal", "city": "Lower West Side", "timezone": "America/Chicago", "location": {"type": "Point", "coordinates": [-87.66561, 41.8542]}}}, {"id": 190, "type_name": "modules/geo_models/company", "properties": {"name": "Lopez-Kim, and Sons", "description": "Compatible eco-centric solution", "city": "North Tustin", "timezone": "America/Los_Angeles", "location": {"type": "Point", "coordinates": [-117.79394, 33.76446]}}}, {"id": 191, "type_name": "modules/geo_models/company", "properties": {"name": "Donaldson, Gay and Bowman, Ltd", "description": "Automated systemic productivity", "city": "Riverbank", "timezone": "America/Los_Angeles", "location": {"type": "Point", "coordinates": [-120.93549, 37.73604]}}}, {"id": 192, "type_name": "modules/geo_models/company", "properties": {"name": "Rodriguez Ltd, PLC", "description": "Profit-focused object-oriented hardware", "city": "Granger", "timezone": "America/Indiana/Indianapolis", "location": {"type": "Point", "coordinates": [-86.11084, 41.75338]}}}, {"id": 193, "type_name": "modules/geo_models/company", "properties": {"name": "Wilkinson Inc, LLC", "description": "Phased directional budgetary management", "city": "Nampa", "timezone": "America/Boise", "location": {"type": "Point", "coordinates": [-116.56346, 43.54072]}}}, {"id": 194, "type_name": "modules/geo_models/company", "properties": {"name": "Nelson-Pierce, PLC", "description": "Innovative mission-critical utilization", "city": "Collinwood", "timezone": "America/New_York", "location": {"type": "Point", "coordinates": [-81.56929, 41.55838]}}}, {"id": 195, "type_name": "modules/geo_models/company", "properties": {"name": "Gomez-Underwood, Ltd", "description": "Extended object-oriented middleware", "city": "Norco", "timezone": "America/Los_Angeles", "location": {"type": "Point", "coordinates": [-117.54866, 33.93113]}}}, {"id": 196, "type_name": "modules/geo_models/company", "properties": {"name": "Lopez-Ashley, Inc", "description": "Synergized homogeneous moderator", "city": "Morningside Heights", "timezone": "America/New_York", "location": {"type": "Point", "coordinates": [-73.9625, 40.81]}}}, {"id": 197, "type_name": "modules/geo_models/company", "properties": {"name": "Stevenson, Lee and Green, Group", "description": "Synchronized actuating firmware", "city": "Estelle", "timezone": "America/Chicago", "location": {"type": "Point", "coordinates": [-90.10674, 29.84576]}}}, {"id": 198, "type_name": "modules/geo_models/company", "properties": {"name": "Harris, Miller and Wilson, Group", "description": "Face-to-face high-level utilization", "city": "Deltona", "timezone": "America/New_York", "location": {"type": "Point", "coordinates": [-81.26367, 28.90054]}}}, {"id": 199, "type_name": "modules/geo_models/company", "properties": {"name": "Cuevas, Taylor and Thomas, LLC", "description": "Operative tertiary protocol", "city": "Muskogee", "timezone": "America/Chicago", "location": {"type": "Point", "coordinates": [-95.36969, 35.74788]}}}, {"id": 200, "type_name": "modules/geo_models/company", "properties": {"name": "Wallace-Hall, LLC", "description": "Open-architected 4thgeneration knowledge user", "city": "Independence", "timezone": "America/Chicago", "location": {"type": "Point", "coordinates": [-94.41551, 39.09112]}}}, {"id": 201, "type_name": "modules/geo_models/company", "properties": {"name": "Lewis-Lynn, Ltd", "description": "Digitized 24hour algorithm", "city": "Kendall", "timezone": "America/New_York", "location": {"type": "Point", "coordinates": [-80.31727, 25.67927]}}}, {"id": 202, "type_name": "modules/geo_models/company", "properties": {"name": "Jones Group, Ltd", "description": "Function-based mobile Graphical User Interface", "city": "Sicklerville", "timezone": "America/New_York", "location": {"type": "Point", "coordinates": [-74.96933, 39.71734]}}}, {"id": 203, "type_name": "modules/geo_models/company", "properties": {"name": "Davis, Kelly and Taylor, LLC", "description": "Balanced asynchronous projection", "city": "Lino Lakes", "timezone": "America/Chicago", "location": {"type": "Point", "coordinates": [-93.08883, 45.16024]}}}, {"id": 204, "type_name": "modules/geo_models/company", "properties": {"name": "Frye-Powers, Group", "description": "Exclusive zero administration encoding", "city": "Woodlawn", "timezone": "America/New_York", "location": {"type": "Point", "coordinates": [-76.72803, 39.32288]}}}, {"id": 205, "type_name": "modules/geo_models/company", "properties": {"name": "Brown-Jones, and Sons", "description": "Right-sized grid-enabled forecast", "city": "Lompoc", "timezone": "America/Los_Angeles", "location": {"type": "Point", "coordinates": [-120.45794, 34.63915]}}}, {"id": 206, "type_name": "modules/geo_models/company", "properties": {"name": "Hooper Group, Inc", "description": "Networked asynchronous toolset", "city": "Venice", "timezone": "America/New_York", "location": {"type": "Point", "coordinates": [-82.45426, 27.09978]}}}, {"id": 207, "type_name": "modules/geo_models/company", "properties": {"name": "Brown-Cook, Ltd", "description": "Sharable homogeneous monitoring", "city": "South Lawndale", "timezone": "America/Chicago", "location": {"type": "Point", "coordinates": [-87.71255, 41.84364]}}}, {"id": 208, "type_name": "modules/geo_models/company", "properties": {"name": "Ramirez Ltd, Ltd", "description": "Profit-focused logistical framework", "city": "New City", "timezone": "America/Chicago", "location": {"type": "Point", "coordinates": [-87.65644, 41.80753]}}}, {"id": 209, "type_name": "modules/geo_models/company", "properties": {"name": "Johnson-Vargas, Group", "description": "Centralized client-server hub", "city": "Huntley", "timezone": "America/Chicago", "location": {"type": "Point", "coordinates": [-88.42814, 42.16808]}}}, {"id": 210, "type_name": "modules/geo_models/company", "properties": {"name": "Phillips, Fernandez and Valdez, Ltd", "description": "Enterprise-wide heuristic instruction set", "city": "Beaumont", "timezone": "America/Los_Angeles", "location": {"type": "Point", "coordinates": [-116.97725, 33.92946]}}}, {"id": 211, "type_name": "modules/geo_models/company", "properties": {"name": "Shelton Inc, LLC", "description": "Seamless bottom-line knowledge user", "city": "Lower West Side", "timezone": "America/Chicago", "location": {"type": "Point", "coordinates": [-87.66561, 41.8542]}}}, {"id": 212, "type_name": "modules/geo_models/company", "properties": {"name": "Smith Ltd, Group", "description": "User-friendly explicit functionalities", "city": "Rosemount", "timezone": "America/Chicago", "location": {"type": "Point", "coordinates": [-93.12577, 44.73941]}}}, {"id": 213, "type_name": "modules/geo_models/company", "properties": {"name": "Garcia, Davis and White, Group", "description": "Face-to-face methodical monitoring", "city": "Scottsdale", "timezone": "America/Phoenix", "location": {"type": "Point", "coordinates": [-111.89903, 33.50921]}}}, {"id": 214, "type_name": "modules/geo_models/company", "properties": {"name": "Singleton, Wong and Johnson, Inc", "description": "Exclusive value-added website", "city": "Rosedale", "timezone": "America/New_York", "location": {"type": "Point", "coordinates": [-76.51552, 39.32011]}}}, {"id": 215, "type_name": "modules/geo_models/company", "properties": {"name": "Terrell-Hawkins, LLC", "description": "Optional real-time policy", "city": "Acworth", "timezone": "America/New_York", "location": {"type": "Point", "coordinates": [-84.67837, 34.06635]}}}, {"id": 216, "type_name": "modules/geo_models/company", "properties": {"name": "Hayes and Sons, LLC", "description": "Switchable responsive moratorium", "city": "Covington", "timezone": "America/New_York", "location": {"type": "Point", "coordinates": [-84.50855, 39.08367]}}}, {"id": 217, "type_name": "modules/geo_models/company", "properties": {"name": "Green-Wright, Inc", "description": "Multi-lateral dynamic support", "city": "Bothell", "timezone": "America/Los_Angeles", "location": {"type": "Point", "coordinates": [-122.2054, 47.76232]}}}, {"id": 218, "type_name": "modules/geo_models/company", "properties": {"name": "Robertson, Rhodes and Frank, LLC", "description": "Reduced well-modulated website", "city": "Pleasant Prairie", "timezone": "America/Chicago", "location": {"type": "Point", "coordinates": [-87.93341, 42.55308]}}}, {"id": 219, "type_name": "modules/geo_models/company", "properties": {"name": "Buck, Warner and Frey, PLC", "description": "Function-based radical flexibility", "city": "Jackson", "timezone": "America/Chicago", "location": {"type": "Point", "coordinates": [-88.81395, 35.61452]}}}, {"id": 220, "type_name": "modules/geo_models/company", "properties": {"name": "West-Love, Ltd", "description": "Balanced incremental definition", "city": "Palm Valley", "timezone": "America/New_York", "location": {"type": "Point", "coordinates": [-81.38758, 30.17746]}}}, {"id": 221, "type_name": "modules/geo_models/company", "properties": {"name": "Espinoza PLC, Group", "description": "Balanced transitional structure", "city": "Westchester", "timezone": "America/Chicago", "location": {"type": "Point", "coordinates": [-87.882, 41.85059]}}}, {"id": 222, "type_name": "modules/geo_models/company", "properties": {"name": "Ford-Allen, Group", "description": "Quality-focused dynamic matrix", "city": "Nampa", "timezone": "America/Boise", "location": {"type": "Point", "coordinates": [-116.56346, 43.54072]}}}, {"id": 223, "type_name": "modules/geo_models/company", "properties": {"name": "Vega, Baker and Riley, and Sons", "description": "Multi-layered multi-tasking intranet", "city": "Pottstown", "timezone": "America/New_York", "location": {"type": "Point", "coordinates": [-75.64963, 40.24537]}}}, {"id": 224, "type_name": "modules/geo_models/company", "properties": {"name": "Luna, Ward and Graves, Inc", "description": "Team-oriented discrete workforce", "city": "Granger", "timezone": "America/Indiana/Indianapolis", "location": {"type": "Point", "coordinates": [-86.11084, 41.75338]}}}, {"id": 225, "type_name": "modules/geo_models/company", "properties": {"name": "Black, Johnson and Garcia, Group", "description": "Organized interactive model", "city": "Fairview Heights", "timezone": "America/Chicago", "location": {"type": "Point", "coordinates": [-89.99038, 38.58894]}}}, {"id": 226, "type_name": "modules/geo_models/company", "properties": {"name": "Ryan-Bell, Ltd", "description": "Secured 4thgeneration system engine", "city": "Nampa", "timezone": "America/Boise", "location": {"type": "Point", "coordinates": [-116.56346, 43.54072]}}}, {"id": 227, "type_name": "modules/geo_models/company", "properties": {"name": "Maxwell, Moran and Floyd, Group", "description": "Configurable tertiary toolset", "city": "Malden", "timezone": "America/New_York", "location": {"type": "Point", "coordinates": [-71.06616, 42.4251]}}}, {"id": 228, "type_name": "modules/geo_models/company", "properties": {"name": "Vargas, Flores and Brown, Inc", "description": "Cross-platform 4thgeneration initiative", "city": "Ken Caryl", "timezone": "America/Denver", "location": {"type": "Point", "coordinates": [-105.11221, 39.57582]}}}, {"id": 229, "type_name": "modules/geo_models/company", "properties": {"name": "Taylor-Davis, PLC", "description": "Adaptive dedicated toolset", "city": "Evergreen Park", "timezone": "America/Chicago", "location": {"type": "Point", "coordinates": [-87.70172, 41.72059]}}}, {"id": 230, "type_name": "modules/geo_models/company", "properties": {"name": "Merritt Inc, PLC", "description": "Programmable motivating focus group", "city": "Deltona", "timezone": "America/New_York", "location": {"type": "Point", "coordinates": [-81.26367, 28.90054]}}}, {"id": 231, "type_name": "modules/geo_models/company", "properties": {"name": "Graves-Browning, and Sons", "description": "Business-focused high-level open system", "city": "Lino Lakes", "timezone": "America/Chicago", "location": {"type": "Point", "coordinates": [-93.08883, 45.16024]}}}, {"id": 232, "type_name": "modules/geo_models/company", "properties": {"name": "Young-Harris, and Sons", "description": "Front-line holistic data-warehouse", "city": "Murray", "timezone": "America/Chicago", "location": {"type": "Point", "coordinates": [-88.31476, 36.61033]}}}, {"id": 233, "type_name": "modules/geo_models/company", "properties": {"name": "Allen, Caldwell and Nichols, and Sons", "description": "Fully-configurable full-range ability", "city": "Kendall", "timezone": "America/New_York", "location": {"type": "Point", "coordinates": [-80.31727, 25.67927]}}}, {"id": 234, "type_name": "modules/geo_models/company", "properties": {"name": "Campbell, Johnson and Bailey, Inc", "description": "Inverse system-worthy collaboration", "city": "Port Richmond", "timezone": "America/New_York", "location": {"type": "Point", "coordinates": [-74.13653, 40.63316]}}}, {"id": 235, "type_name": "modules/geo_models/company", "properties": {"name": "Carter, Perez and Booker, Inc", "description": "Automated well-modulated attitude", "city": "Nutley", "timezone": "America/New_York", "location": {"type": "Point", "coordinates": [-74.15987, 40.82232]}}}, {"id": 236, "type_name": "modules/geo_models/company", "properties": {"name": "Johnson Ltd, Ltd", "description": "Focused encompassing benchmark", "city": "Mechanicsville", "timezone": "America/New_York", "location": {"type": "Point", "coordinates": [-77.37331, 37.60876]}}}, {"id": 237, "type_name": "modules/geo_models/company", "properties": {"name": "Anderson Ltd, Group", "description": "Cross-platform coherent secured line", "city": "Covington", "timezone": "America/New_York", "location": {"type": "Point", "coordinates": [-84.50855, 39.08367]}}}, {"id": 238, "type_name": "modules/geo_models/company", "properties": {"name": "Benton-Mclaughlin, PLC", "description": "Enterprise-wide static pricing structure", "city": "Fairview Heights", "timezone": "America/Chicago", "location": {"type": "Point", "coordinates": [-89.99038, 38.58894]}}}, {"id": 239, "type_name": "modules/geo_models/company", "properties": {"name": "Webb-Dickson, Group", "description": "Virtual stable instruction set", "city": "Jackson", "timezone": "America/Chicago", "location": {"type": "Point", "coordinates": [-88.81395, 35.61452]}}}, {"id": 240, "type_name": "modules/geo_models/company", "properties": {"name": "Walker PLC, and Sons", "description": "Secured impactful projection", "city": "Boston", "timezone": "America/New_York", "location": {"type": "Point", "coordinates": [-71.05977, 42.35843]}}}, {"id": 241, "type_name": "modules/geo_models/company", "properties": {"name": "Liu Inc, Group", "description": "Compatible fault-tolerant access", "city": "Columbia Heights", "timezone": "America/Chicago", "location": {"type": "Point", "coordinates": [-93.263, 45.0408]}}}, {"id": 242, "type_name": "modules/geo_models/company", "properties": {"name": "Chapman-Holloway, and Sons", "description": "Ergonomic uniform superstructure", "city": "Ken Caryl", "timezone": "America/Denver", "location": {"type": "Point", "coordinates": [-105.11221, 39.57582]}}}, {"id": 243, "type_name": "modules/geo_models/company", "properties": {"name": "Brown, Moore and White, and Sons", "description": "Seamless heuristic protocol", "city": "Kearns", "timezone": "America/Denver", "location": {"type": "Point", "coordinates": [-111.99633, 40.65995]}}}, {"id": 244, "type_name": "modules/geo_models/company", "properties": {"name": "Hamilton, Thompson and Kelly, Inc", "description": "Fully-configurable logistical moratorium", "city": "Clermont", "timezone": "America/New_York", "location": {"type": "Point", "coordinates": [-81.77285, 28.54944]}}}, {"id": 245, "type_name": "modules/geo_models/company", "properties": {"name": "Cruz Group, Group", "description": "Mandatory uniform system engine", "city": "Saratoga Springs", "timezone": "America/Denver", "location": {"type": "Point", "coordinates": [-111.90466, 40.34912]}}}, {"id": 246, "type_name": "modules/geo_models/company", "properties": {"name": "Townsend, Conley and Carpenter, LLC", "description": "Organic clear-thinking Graphic Interface", "city": "North Lauderdale", "timezone": "America/New_York", "location": {"type": "Point", "coordinates": [-80.22588, 26.2173]}}}, {"id": 247, "type_name": "modules/geo_models/company", "properties": {"name": "Lucas-Wallace, Ltd", "description": "Fundamental solution-oriented process improvement", "city": "Palestine", "timezone": "America/Chicago", "location": {"type": "Point", "coordinates": [-95.63079, 31.76212]}}}, {"id": 248, "type_name": "modules/geo_models/company", "properties": {"name": "Norton, Grimes and Richards, Inc", "description": "Operative fault-tolerant knowledgebase", "city": "Rosedale", "timezone": "America/New_York", "location": {"type": "Point", "coordinates": [-76.51552, 39.32011]}}}, {"id": 249, "type_name": "modules/geo_models/company", "properties": {"name": "Green Group, Group", "description": "Innovative discrete benchmark", "city": "Acworth", "timezone": "America/New_York", "location": {"type": "Point", "coordinates": [-84.67837, 34.06635]}}}, {"id": 250, "type_name": "modules/geo_models/company", "properties": {"name": "Williams, Benitez and Sanders, Group", "description": "Cross-platform client-server implementation", "city": "Milledgeville", "timezone": "America/New_York", "location": {"type": "Point", "coordinates": [-83.2321, 33.08014]}}}, {"id": 251, "type_name": "modules/geo_models/company", "properties": {"name": "Knight, Hooper and Sharp, PLC", "description": "Team-oriented stable knowledge user", "city": "Santa Maria", "timezone": "America/Los_Angeles", "location": {"type": "Point", "coordinates": [-120.43572, 34.95303]}}}, {"id": 252, "type_name": "modules/geo_models/company", "properties": {"name": "Glass and Sons, LLC", "description": "Up-sized client-server synergy", "city": "Deltona", "timezone": "America/New_York", "location": {"type": "Point", "coordinates": [-81.26367, 28.90054]}}}, {"id": 253, "type_name": "modules/geo_models/company", "properties": {"name": "Carter Inc, Inc", "description": "Optimized context-sensitive architecture", "city": "Bourbonnais", "timezone": "America/Chicago", "location": {"type": "Point", "coordinates": [-87.88754, 41.15376]}}}, {"id": 254, "type_name": "modules/geo_models/company", "properties": {"name": "Gonzales-Walker, LLC", "description": "Automated actuating time-frame", "city": "Jackson", "timezone": "America/Chicago", "location": {"type": "Point", "coordinates": [-88.81395, 35.61452]}}}, {"id": 255, "type_name": "modules/geo_models/company", "properties": {"name": "Parks LLC, PLC", "description": "Public-key transitional contingency", "city": "Coralville", "timezone": "America/Chicago", "location": {"type": "Point", "coordinates": [-91.58045, 41.6764]}}}, {"id": 256, "type_name": "modules/geo_models/company", "properties": {"name": "Mcdaniel-Roberts, LLC", "description": "Progressive intermediate installation", "city": "Pekin", "timezone": "America/Chicago", "location": {"type": "Point", "coordinates": [-89.64066, 40.56754]}}}, {"id": 257, "type_name": "modules/geo_models/company", "properties": {"name": "Morris LLC, Group", "description": "Ergonomic cohesive array", "city": "Coralville", "timezone": "America/Chicago", "location": {"type": "Point", "coordinates": [-91.58045, 41.6764]}}}, {"id": 258, "type_name": "modules/geo_models/company", "properties": {"name": "Short-Wheeler, PLC", "description": "Distributed bifurcated access", "city": "Glendale", "timezone": "America/Los_Angeles", "location": {"type": "Point", "coordinates": [-118.25508, 34.14251]}}}, {"id": 259, "type_name": "modules/geo_models/company", "properties": {"name": "Greene-Sherman, and Sons", "description": "Devolved intangible migration", "city": "New Canaan", "timezone": "America/New_York", "location": {"type": "Point", "coordinates": [-73.49484, 41.14676]}}}, {"id": 260, "type_name": "modules/geo_models/company", "properties": {"name": "Parker LLC, LLC", "description": "Adaptive maximized open system", "city": "Copperas Cove", "timezone": "America/Chicago", "location": {"type": "Point", "coordinates": [-97.90308, 31.12406]}}}, {"id": 261, "type_name": "modules/geo_models/company", "properties": {"name": "Spencer-Brock, Group", "description": "Open-source object-oriented service-desk", "city": "Copperas Cove", "timezone": "America/Chicago", "location": {"type": "Point", "coordinates": [-97.90308, 31.12406]}}}, {"id": 262, "type_name": "modules/geo_models/company", "properties": {"name": "Oconnell-Smith, Ltd", "description": "Future-proofed fresh-thinking forecast", "city": "Santa Maria", "timezone": "America/Los_Angeles", "location": {"type": "Point", "coordinates": [-120.43572, 34.95303]}}}, {"id": 263, "type_name": "modules/geo_models/company", "properties": {"name": "Elliott-Krueger, Group", "description": "Exclusive object-oriented website", "city": "Port Richmond", "timezone": "America/New_York", "location": {"type": "Point", "coordinates": [-74.13653, 40.63316]}}}, {"id": 264, "type_name": "modules/geo_models/company", "properties": {"name": "Diaz Ltd, Inc", "description": "User-friendly interactive architecture", "city": "Front Royal", "timezone": "America/New_York", "location": {"type": "Point", "coordinates": [-78.19444, 38.91817]}}}, {"id": 265, "type_name": "modules/geo_models/company", "properties": {"name": "Allen-Hart, and Sons", "description": "Public-key radical benchmark", "city": "Leland", "timezone": "America/New_York", "location": {"type": "Point", "coordinates": [-78.04471, 34.25628]}}}, {"id": 266, "type_name": "modules/geo_models/company", "properties": {"name": "Greer Ltd, Group", "description": "Open-architected fault-tolerant Graphical User Interface", "city": "Indio", "timezone": "America/Los_Angeles", "location": {"type": "Point", "coordinates": [-116.21677, 33.7207]}}}, {"id": 267, "type_name": "modules/geo_models/company", "properties": {"name": "Smith-Kent, Inc", "description": "Decentralized discrete migration", "city": "Kensington", "timezone": "America/New_York", "location": {"type": "Point", "coordinates": [-73.97069, 40.64621]}}}, {"id": 268, "type_name": "modules/geo_models/company", "properties": {"name": "Reyes-Davis, PLC", "description": "Triple-buffered executive matrices", "city": "Muskogee", "timezone": "America/Chicago", "location": {"type": "Point", "coordinates": [-95.36969, 35.74788]}}}, {"id": 269, "type_name": "modules/geo_models/company", "properties": {"name": "Morris-Hughes, PLC", "description": "Quality-focused modular product", "city": "Bothell", "timezone": "America/Los_Angeles", "location": {"type": "Point", "coordinates": [-122.2054, 47.76232]}}}, {"id": 270, "type_name": "modules/geo_models/company", "properties": {"name": "Lopez, Hooper and Smith, Ltd", "description": "Operative secondary flexibility", "city": "Gilbert", "timezone": "America/Phoenix", "location": {"type": "Point", "coordinates": [-111.78903, 33.35283]}}}, {"id": 271, "type_name": "modules/geo_models/company", "properties": {"name": "Smith, Taylor and Vasquez, PLC", "description": "Distributed regional approach", "city": "Middle River", "timezone": "America/New_York", "location": {"type": "Point", "coordinates": [-76.43941, 39.33427]}}}, {"id": 272, "type_name": "modules/geo_models/company", "properties": {"name": "Campbell, Brooks and Thompson, LLC", "description": "Multi-tiered national software", "city": "Woodbridge", "timezone": "America/New_York", "location": {"type": "Point", "coordinates": [-74.28459, 40.5576]}}}, {"id": 273, "type_name": "modules/geo_models/company", "properties": {"name": "Powell, Cunningham and Colon, and Sons", "description": "Re-engineered 6thgeneration matrix", "city": "Gates-North Gates", "timezone": "America/New_York", "location": {"type": "Point", "coordinates": [-77.70066, 43.16547]}}}, {"id": 274, "type_name": "modules/geo_models/company", "properties": {"name": "May, Vincent and Macdonald, PLC", "description": "Fully-configurable local standardization", "city": "Claremont", "timezone": "America/Los_Angeles", "location": {"type": "Point", "coordinates": [-117.71978, 34.09668]}}}, {"id": 275, "type_name": "modules/geo_models/company", "properties": {"name": "Harris PLC, Ltd", "description": "Public-key tangible collaboration", "city": "Greenpoint", "timezone": "America/New_York", "location": {"type": "Point", "coordinates": [-73.95097, 40.72371]}}}, {"id": 276, "type_name": "modules/geo_models/company", "properties": {"name": "Ballard, Farrell and Hammond, Group", "description": "Grass-roots scalable matrix", "city": "Ken Caryl", "timezone": "America/Denver", "location": {"type": "Point", "coordinates": [-105.11221, 39.57582]}}}, {"id": 277, "type_name": "modules/geo_models/company", "properties": {"name": "Mcintyre LLC, Inc", "description": "User-friendly user-facing hardware", "city": "Tyler", "timezone": "America/Chicago", "location": {"type": "Point", "coordinates": [-95.30106, 32.35126]}}}, {"id": 278, "type_name": "modules/geo_models/company", "properties": {"name": "Wright LLC, PLC", "description": "Total fresh-thinking synergy", "city": "Greenville", "timezone": "America/Chicago", "location": {"type": "Point", "coordinates": [-91.06177, 33.41012]}}}, {"id": 279, "type_name": "modules/geo_models/company", "properties": {"name": "Gutierrez-Lang, PLC", "description": "Business-focused motivating throughput", "city": "Mira Mesa", "timezone": "America/Los_Angeles", "location": {"type": "Point", "coordinates": [-117.14392, 32.9156]}}}, {"id": 280, "type_name": "modules/geo_models/company", "properties": {"name": "Gray and Sons, Inc", "description": "Function-based web-enabled Internet solution", "city": "Sterling", "timezone": "America/New_York", "location": {"type": "Point", "coordinates": [-77.4286, 39.00622]}}}, {"id": 281, "type_name": "modules/geo_models/company", "properties": {"name": "Wong Group, LLC", "description": "Customizable multi-state synergy", "city": "Rosemount", "timezone": "America/Chicago", "location": {"type": "Point", "coordinates": [-93.12577, 44.73941]}}}, {"id": 282, "type_name": "modules/geo_models/company", "properties": {"name": "Lopez, Carpenter and Blackburn, and Sons", "description": "Distributed explicit complexity", "city": "Peabody", "timezone": "America/New_York", "location": {"type": "Point", "coordinates": [-70.92866, 42.52787]}}}, {"id": 283, "type_name": "modules/geo_models/company", "properties": {"name": "Stone Group, Group", "description": "Vision-oriented coherent collaboration", "city": "San Gabriel", "timezone": "America/Los_Angeles", "location": {"type": "Point", "coordinates": [-118.10583, 34.09611]}}}, {"id": 284, "type_name": "modules/geo_models/company", "properties": {"name": "Bennett, Thomas and Allen, LLC", "description": "Persevering reciprocal frame", "city": "Independence", "timezone": "America/Chicago", "location": {"type": "Point", "coordinates": [-94.41551, 39.09112]}}}, {"id": 285, "type_name": "modules/geo_models/company", "properties": {"name": "Woodard Ltd, PLC", "description": "Cross-platform real-time circuit", "city": "Palestine", "timezone": "America/Chicago", "location": {"type": "Point", "coordinates": [-95.63079, 31.76212]}}}, {"id": 286, "type_name": "modules/geo_models/company", "properties": {"name": "Bennett LLC, LLC", "description": "Persevering incremental hub", "city": "Canton", "timezone": "America/Detroit", "location": {"type": "Point", "coordinates": [-83.48216, 42.30865]}}}, {"id": 287, "type_name": "modules/geo_models/company", "properties": {"name": "Harrison PLC, and Sons", "description": "Team-oriented local focus group", "city": "Shreveport", "timezone": "America/Chicago", "location": {"type": "Point", "coordinates": [-93.75018, 32.52515]}}}, {"id": 288, "type_name": "modules/geo_models/company", "properties": {"name": "Haas-Mcdonald, Ltd", "description": "Fully-configurable eco-centric process improvement", "city": "Rolla", "timezone": "America/Chicago", "location": {"type": "Point", "coordinates": [-91.77127, 37.95143]}}}, {"id": 289, "type_name": "modules/geo_models/company", "properties": {"name": "Hendricks PLC, Ltd", "description": "Re-engineered tangible algorithm", "city": "Glendale", "timezone": "America/Los_Angeles", "location": {"type": "Point", "coordinates": [-118.25508, 34.14251]}}}, {"id": 290, "type_name": "modules/geo_models/company", "properties": {"name": "Golden PLC, LLC", "description": "Decentralized eco-centric approach", "city": "Westchester", "timezone": "America/Chicago", "location": {"type": "Point", "coordinates": [-87.882, 41.85059]}}}, {"id": 291, "type_name": "modules/geo_models/company", "properties": {"name": "Miller-Wood, LLC", "description": "Synchronized value-added concept", "city": "Greenfield", "timezone": "America/Indiana/Indianapolis", "location": {"type": "Point", "coordinates": [-85.76942, 39.78504]}}}, {"id": 292, "type_name": "modules/geo_models/company", "properties": {"name": "Hawkins, Richard and Ferguson, PLC", "description": "Visionary analyzing application", "city": "Watsonville", "timezone": "America/Los_Angeles", "location": {"type": "Point", "coordinates": [-121.75689, 36.91023]}}}, {"id": 293, "type_name": "modules/geo_models/company", "properties": {"name": "Young-Tapia, LLC", "description": "Managed explicit circuit", "city": "Hueytown", "timezone": "America/Chicago", "location": {"type": "Point", "coordinates": [-86.99666, 33.45122]}}}, {"id": 294, "type_name": "modules/geo_models/company", "properties": {"name": "Watkins LLC, and Sons", "description": "Proactive fault-tolerant attitude", "city": "Jackson", "timezone": "America/Chicago", "location": {"type": "Point", "coordinates": [-88.81395, 35.61452]}}}, {"id": 295, "type_name": "modules/geo_models/company", "properties": {"name": "Bradford-Jones, LLC", "description": "Centralized dynamic toolset", "city": "Fort Washington", "timezone": "America/New_York", "location": {"type": "Point", "coordinates": [-77.02303, 38.70734]}}}, {"id": 296, "type_name": "modules/geo_models/company", "properties": {"name": "Harris-Cain, PLC", "description": "Stand-alone intangible hardware", "city": "Fitchburg", "timezone": "America/New_York", "location": {"type": "Point", "coordinates": [-71.8023, 42.58342]}}}, {"id": 297, "type_name": "modules/geo_models/company", "properties": {"name": "Esparza LLC, and Sons", "description": "Upgradable leadingedge leverage", "city": "Encinitas", "timezone": "America/Los_Angeles", "location": {"type": "Point", "coordinates": [-117.29198, 33.03699]}}}, {"id": 298, "type_name": "modules/geo_models/company", "properties": {"name": "Hudson-Oconnor, and Sons", "description": "Quality-focused systemic service-desk", "city": "Muskogee", "timezone": "America/Chicago", "location": {"type": "Point", "coordinates": [-95.36969, 35.74788]}}}, {"id": 299, "type_name": "modules/geo_models/company", "properties": {"name": "Schultz-Johnson, LLC", "description": "Fully-configurable transitional contingency", "city": "Norco", "timezone": "America/Los_Angeles", "location": {"type": "Point", "coordinates": [-117.54866, 33.93113]}}}, {"id": 300, "type_name": "modules/geo_models/company", "properties": {"name": "Hardy-Hernandez, LLC", "description": "Multi-tiered next generation archive", "city": "Bon Air", "timezone": "America/New_York", "location": {"type": "Point", "coordinates": [-77.55777, 37.52487]}}}, {"id": 301, "type_name": "modules/geo_models/company", "properties": {"name": "Boone-Sanchez, Group", "description": "Business-focused static archive", "city": "Peabody", "timezone": "America/New_York", "location": {"type": "Point", "coordinates": [-70.92866, 42.52787]}}}, {"id": 302, "type_name": "modules/geo_models/company", "properties": {"name": "Vargas, Delacruz and Lopez, Inc", "description": "Quality-focused composite framework", "city": "Morningside Heights", "timezone": "America/New_York", "location": {"type": "Point", "coordinates": [-73.9625, 40.81]}}}, {"id": 303, "type_name": "modules/geo_models/company", "properties": {"name": "Durham, Hart and Owens, Group", "description": "Synergized optimal core", "city": "Newburgh", "timezone": "America/New_York", "location": {"type": "Point", "coordinates": [-74.01042, 41.50343]}}}, {"id": 304, "type_name": "modules/geo_models/company", "properties": {"name": "Gardner and Sons, PLC", "description": "Organized radical core", "city": "Shreveport", "timezone": "America/Chicago", "location": {"type": "Point", "coordinates": [-93.75018, 32.52515]}}}, {"id": 305, "type_name": "modules/geo_models/company", "properties": {"name": "Taylor and Sons, Ltd", "description": "Enterprise-wide even-keeled utilization", "city": "Mira Mesa", "timezone": "America/Los_Angeles", "location": {"type": "Point", "coordinates": [-117.14392, 32.9156]}}}, {"id": 306, "type_name": "modules/geo_models/company", "properties": {"name": "Jones Ltd, Group", "description": "Adaptive hybrid flexibility", "city": "Far Rockaway", "timezone": "America/New_York", "location": {"type": "Point", "coordinates": [-73.75513, 40.60538]}}}, {"id": 307, "type_name": "modules/geo_models/company", "properties": {"name": "Long-Mills, and Sons", "description": "Open-architected impactful software", "city": "Scarsdale", "timezone": "America/New_York", "location": {"type": "Point", "coordinates": [-73.78458, 41.0051]}}}, {"id": 308, "type_name": "modules/geo_models/company", "properties": {"name": "West, Olson and Rodriguez, LLC", "description": "Open-architected systematic knowledgebase", "city": "Port Huron", "timezone": "America/Detroit", "location": {"type": "Point", "coordinates": [-82.42491, 42.97086]}}}, {"id": 309, "type_name": "modules/geo_models/company", "properties": {"name": "Sullivan-Bauer, Inc", "description": "Stand-alone bottom-line core", "city": "Thomasville", "timezone": "America/New_York", "location": {"type": "Point", "coordinates": [-80.08199, 35.88264]}}}, {"id": 310, "type_name": "modules/geo_models/company", "properties": {"name": "Reed-King, PLC", "description": "Stand-alone 5thgeneration protocol", "city": "Crystal Lake", "timezone": "America/Chicago", "location": {"type": "Point", "coordinates": [-88.3162, 42.24113]}}}, {"id": 311, "type_name": "modules/geo_models/company", "properties": {"name": "Bray, Nicholson and Gonzales, LLC", "description": "Reverse-engineered attitude-oriented infrastructure", "city": "Middletown", "timezone": "America/New_York", "location": {"type": "Point", "coordinates": [-71.29144, 41.54566]}}}, {"id": 312, "type_name": "modules/geo_models/company", "properties": {"name": "Davis Group, LLC", "description": "Advanced scalable frame", "city": "Ken Caryl", "timezone": "America/Denver", "location": {"type": "Point", "coordinates": [-105.11221, 39.57582]}}}, {"id": 313, "type_name": "modules/geo_models/company", "properties": {"name": "Velasquez, Orr and Walker, and Sons", "description": "Diverse needs-based architecture", "city": "Port Huron", "timezone": "America/Detroit", "location": {"type": "Point", "coordinates": [-82.42491, 42.97086]}}}, {"id": 314, "type_name": "modules/geo_models/company", "properties": {"name": "Baker Ltd, and Sons", "description": "Polarized user-facing circuit", "city": "Evergreen Park", "timezone": "America/Chicago", "location": {"type": "Point", "coordinates": [-87.70172, 41.72059]}}}, {"id": 315, "type_name": "modules/geo_models/company", "properties": {"name": "Klein LLC, Group", "description": "Organic impactful Local Area Network", "city": "Taunton", "timezone": "America/New_York", "location": {"type": "Point", "coordinates": [-71.08977, 41.9001]}}}, {"id": 316, "type_name": "modules/geo_models/company", "properties": {"name": "Dixon Ltd, Inc", "description": "Upgradable logistical collaboration", "city": "Granger", "timezone": "America/Indiana/Indianapolis", "location": {"type": "Point", "coordinates": [-86.11084, 41.75338]}}}, {"id": 317, "type_name": "modules/geo_models/company", "properties": {"name": "Rich-Lewis, Inc", "description": "Organic dynamic archive", "city": "Morningside Heights", "timezone": "America/New_York", "location": {"type": "Point", "coordinates": [-73.9625, 40.81]}}}, {"id": 318, "type_name": "modules/geo_models/company", "properties": {"name": "Faulkner, Parker and Martin, and Sons", "description": "Devolved 3rdgeneration alliance", "city": "Beaumont", "timezone": "America/Los_Angeles", "location": {"type": "Point", "coordinates": [-116.97725, 33.92946]}}}, {"id": 319, "type_name": "modules/geo_models/company", "properties": {"name": "Washington-Barton, Inc", "description": "Self-enabling next generation instruction set", "city": "Muskogee", "timezone": "America/Chicago", "location": {"type": "Point", "coordinates": [-95.36969, 35.74788]}}}, {"id": 320, "type_name": "modules/geo_models/company", "properties": {"name": "Newton-Burch, PLC", "description": "Mandatory bi-directional monitoring", "city": "Hutchinson", "timezone": "America/Chicago", "location": {"type": "Point", "coordinates": [-97.92977, 38.06084]}}}, {"id": 321, "type_name": "modules/geo_models/company", "properties": {"name": "Odonnell, Jackson and Matthews, and Sons", "description": "Devolved 24hour matrix", "city": "Schererville", "timezone": "America/Chicago", "location": {"type": "Point", "coordinates": [-87.45476, 41.47892]}}}, {"id": 322, "type_name": "modules/geo_models/company", "properties": {"name": "Gray, Shea and Wagner, LLC", "description": "Polarized optimal flexibility", "city": "Malden", "timezone": "America/New_York", "location": {"type": "Point", "coordinates": [-71.06616, 42.4251]}}}, {"id": 323, "type_name": "modules/geo_models/company", "properties": {"name": "Rice LLC, Group", "description": "User-friendly directional hardware", "city": "Carlsbad", "timezone": "America/Denver", "location": {"type": "Point", "coordinates": [-104.22884, 32.42067]}}}, {"id": 324, "type_name": "modules/geo_models/company", "properties": {"name": "Ramirez-Booker, Ltd", "description": "Distributed contextually-based budgetary management", "city": "Cypress Hills", "timezone": "America/New_York", "location": {"type": "Point", "coordinates": [-73.89125, 40.67705]}}}, {"id": 325, "type_name": "modules/geo_models/company", "properties": {"name": "Williams, Guzman and Hudson, Group", "description": "Devolved multi-state budgetary management", "city": "Morningside Heights", "timezone": "America/New_York", "location": {"type": "Point", "coordinates": [-73.9625, 40.81]}}}, {"id": 326, "type_name": "modules/geo_models/company", "properties": {"name": "Werner PLC, Group", "description": "Vision-oriented context-sensitive forecast", "city": "Kearns", "timezone": "America/Denver", "location": {"type": "Point", "coordinates": [-111.99633, 40.65995]}}}, {"id": 327, "type_name": "modules/geo_models/company", "properties": {"name": "Dawson LLC, LLC", "description": "Diverse full-range open architecture", "city": "Glendale", "timezone": "America/Los_Angeles", "location": {"type": "Point", "coordinates": [-118.25508, 34.14251]}}}, {"id": 328, "type_name": "modules/geo_models/company", "properties": {"name": "Wood and Sons, Ltd", "description": "Phased high-level throughput", "city": "Columbia Heights", "timezone": "America/Chicago", "location": {"type": "Point", "coordinates": [-93.263, 45.0408]}}}, {"id": 329, "type_name": "modules/geo_models/company", "properties": {"name": "Caldwell LLC, LLC", "description": "Upgradable user-facing implementation", "city": "San Gabriel", "timezone": "America/Los_Angeles", "location": {"type": "Point", "coordinates": [-118.10583, 34.09611]}}}, {"id": 330, "type_name": "modules/geo_models/company", "properties": {"name": "Stone, Johnson and Cohen, Group", "description": "Phased 4thgeneration help-desk", "city": "San Gabriel", "timezone": "America/Los_Angeles", "location": {"type": "Point", "coordinates": [-118.10583, 34.09611]}}}, {"id": 331, "type_name": "modules/geo_models/company", "properties": {"name": "Wright, Farley and Mills, and Sons", "description": "Virtual attitude-oriented data-warehouse", "city": "Lakewood", "timezone": "America/New_York", "location": {"type": "Point", "coordinates": [-81.79819, 41.48199]}}}, {"id": 332, "type_name": "modules/geo_models/company", "properties": {"name": "Webb PLC, Group", "description": "Profit-focused foreground protocol", "city": "Waterbury", "timezone": "America/New_York", "location": {"type": "Point", "coordinates": [-73.0515, 41.55815]}}}, {"id": 333, "type_name": "modules/geo_models/company", "properties": {"name": "Whitehead, Valenzuela and Watkins, Ltd", "description": "User-centric next generation access", "city": "Tupelo", "timezone": "America/Chicago", "location": {"type": "Point", "coordinates": [-88.70464, 34.25807]}}}, {"id": 334, "type_name": "modules/geo_models/company", "properties": {"name": "Hahn, Elliott and Moody, LLC", "description": "Ameliorated responsive conglomeration", "city": "Aloha", "timezone": "America/Los_Angeles", "location": {"type": "Point", "coordinates": [-122.86705, 45.49428]}}}, {"id": 335, "type_name": "modules/geo_models/company", "properties": {"name": "Crane, Cox and Carter, LLC", "description": "Customizable context-sensitive groupware", "city": "Visitacion Valley", "timezone": "America/Los_Angeles", "location": {"type": "Point", "coordinates": [-122.40433, 37.71715]}}}, {"id": 336, "type_name": "modules/geo_models/company", "properties": {"name": "Tucker, Ortiz and Pollard, PLC", "description": "Mandatory bandwidth-monitored secured line", "city": "Belle Glade", "timezone": "America/New_York", "location": {"type": "Point", "coordinates": [-80.66756, 26.68451]}}}, {"id": 337, "type_name": "modules/geo_models/company", "properties": {"name": "Wise-White, Inc", "description": "Fully-configurable modular analyzer", "city": "Estelle", "timezone": "America/Chicago", "location": {"type": "Point", "coordinates": [-90.10674, 29.84576]}}}, {"id": 338, "type_name": "modules/geo_models/company", "properties": {"name": "Gibson-Hanson, Group", "description": "Horizontal executive standardization", "city": "Indio", "timezone": "America/Los_Angeles", "location": {"type": "Point", "coordinates": [-116.21677, 33.7207]}}}, {"id": 339, "type_name": "modules/geo_models/company", "properties": {"name": "Edwards, Velez and Rogers, Ltd", "description": "Stand-alone background Internet solution", "city": "Beaumont", "timezone": "America/Los_Angeles", "location": {"type": "Point", "coordinates": [-116.97725, 33.92946]}}}, {"id": 340, "type_name": "modules/geo_models/company", "properties": {"name": "Brown, Fisher and Franco, and Sons", "description": "Advanced tertiary moderator", "city": "Collinwood", "timezone": "America/New_York", "location": {"type": "Point", "coordinates": [-81.56929, 41.55838]}}}, {"id": 341, "type_name": "modules/geo_models/company", "properties": {"name": "Williams Inc, LLC", "description": "Adaptive directional approach", "city": "Middle River", "timezone": "America/New_York", "location": {"type": "Point", "coordinates": [-76.43941, 39.33427]}}}, {"id": 342, "type_name": "modules/geo_models/company", "properties": {"name": "Smith PLC, LLC", "description": "Triple-buffered optimal info-mediaries", "city": "Greenfield", "timezone": "America/Indiana/Indianapolis", "location": {"type": "Point", "coordinates": [-85.76942, 39.78504]}}}, {"id": 343, "type_name": "modules/geo_models/company", "properties": {"name": "Moreno Inc, and Sons", "description": "Proactive coherent software", "city": "Vestavia Hills", "timezone": "America/Chicago", "location": {"type": "Point", "coordinates": [-86.78777, 33.44872]}}}, {"id": 344, "type_name": "modules/geo_models/company", "properties": {"name": "Martinez and Sons, Group", "description": "Synergistic modular challenge", "city": "Kensington", "timezone": "America/New_York", "location": {"type": "Point", "coordinates": [-73.97069, 40.64621]}}}, {"id": 345, "type_name": "modules/geo_models/company", "properties": {"name": "Todd, Stokes and Adams, Group", "description": "Robust content-based capacity", "city": "Lutz", "timezone": "America/New_York", "location": {"type": "Point", "coordinates": [-82.46148, 28.15112]}}}, {"id": 346, "type_name": "modules/geo_models/company", "properties": {"name": "Pena, Green and Barajas, Inc", "description": "Multi-lateral local system engine", "city": "Collinwood", "timezone": "America/New_York", "location": {"type": "Point", "coordinates": [-81.56929, 41.55838]}}}, {"id": 347, "type_name": "modules/geo_models/company", "properties": {"name": "Garcia, Freeman and Fuller, and Sons", "description": "Advanced secondary throughput", "city": "Lexington", "timezone": "America/New_York", "location": {"type": "Point", "coordinates": [-81.23621, 33.98154]}}}, {"id": 348, "type_name": "modules/geo_models/company", "properties": {"name": "Owen-Black, PLC", "description": "Devolved 6thgeneration encryption", "city": "Sicklerville", "timezone": "America/New_York", "location": {"type": "Point", "coordinates": [-74.96933, 39.71734]}}}, {"id": 349, "type_name": "modules/geo_models/company", "properties": {"name": "Mason, Ford and Pearson, Group", "description": "Virtual 24/7 flexibility", "city": "Santa Maria", "timezone": "America/Los_Angeles", "location": {"type": "Point", "coordinates": [-120.43572, 34.95303]}}}, {"id": 350, "type_name": "modules/geo_models/company", "properties": {"name": "Patterson, Tanner and Chavez, Inc", "description": "Diverse homogeneous strategy", "city": "Pleasant Prairie", "timezone": "America/Chicago", "location": {"type": "Point", "coordinates": [-87.93341, 42.55308]}}}, {"id": 351, "type_name": "modules/geo_models/company", "properties": {"name": "Peters-Walker, LLC", "description": "Vision-oriented needs-based challenge", "city": "Encinitas", "timezone": "America/Los_Angeles", "location": {"type": "Point", "coordinates": [-117.29198, 33.03699]}}}, {"id": 352, "type_name": "modules/geo_models/company", "properties": {"name": "Sanchez Ltd, Ltd", "description": "Profound real-time strategy", "city": "Schererville", "timezone": "America/Chicago", "location": {"type": "Point", "coordinates": [-87.45476, 41.47892]}}}, {"id": 353, "type_name": "modules/geo_models/company", "properties": {"name": "Reese LLC, LLC", "description": "User-centric tangible flexibility", "city": "Rolla", "timezone": "America/Chicago", "location": {"type": "Point", "coordinates": [-91.77127, 37.95143]}}}, {"id": 354, "type_name": "modules/geo_models/company", "properties": {"name": "Francis Inc, LLC", "description": "Versatile background collaboration", "city": "Ada", "timezone": "America/Chicago", "location": {"type": "Point", "coordinates": [-96.67834, 34.77453]}}},